Type,Day cases,Report Date,School Name,Address 1,County,Local Authority,Eircode,Region,Roll Number,Lat,Long
Secondary,1,1.05.2021,Killina Presentation Secondary School,Rahan,Offaly,Offaly County Council,R35PX95,Leinster,65630B,-7.6153168,53.2810415
Primary,1,1.05.2021,Bun Scoil Muire,Youghal,Cork,Cork County Council,P36PR62,Munster,20024C,-7.850556,51.95
Secondary,1,1.05.2021,Coláiste Lorcain,Castledermot,Kildare,Kildare County Council,R14X620,Leinster,70670R,-6.8368376,52.9119491
Primary,1,1.05.2021,Corpus Christi NS,"Drumcondra, D9",Dublin,Dublin City Council,D09K270,Dublin,16860Q,-6.259665718431606,53.36334425
Secondary,1,1.05.2021,Deele College,Lifford,Donegal,Donegal County Council,F93D237,Ulster,71230R,-7.483095,54.832219
Primary,1,1.05.2021,Askea Boys NS,Carlow,Carlow,Carlow County Council,R93VX27,Leinster,19477J,-6.8250188975846555,52.69053605
Secondary,1,1.05.2021,Naas Community College,Naas,Kildare,Kildare County Council,W91PD87,Leinster,76194S,-6.6574093,53.2214677
Pre-school,1,1.05.2021,Naíonra Lios na nÓg* (not a school),Athlone,Westmeath,,,Leinster,Creche50,-7.942705,53.4230832
Primary,1,1.05.2021,Scoil Bhríde Milltown,Newbridge,Kildare,Kildare County Council,W12PF82,Leinster,16654N,-6.7982137,53.180124
Primary,1,1.05.2021,Scoil Mhuire,Tallow,Waterford,Waterford County Council,P51W212,Munster,19616U,-7.996715473942556,52.067453799999996
Primary,1,1.05.2021,St Patrick's NS,"Castleknock, D15",Dublin,Fingal County Council,D15PH21,Dublin,20130B,-6.3714239,53.3815285
Secondary,1,1.05.2021,St Raphael's College,Loughrea,Galway,Galway County Council,H62K271,Connacht,63070C,-8.5690594,53.1981624
Primary,1,1.05.2021,Clashmore NS,Clashmore,Waterford,Waterford County Council,P36ET78,Munster,02889O,-7.8193151,52.0089017
Primary,1,1.05.2021,Scoil Mhuire,Newbridge,Kildare,Kildare County Council,W12HD29,Leinster,19452Q,-6.7982137,53.180124
Primary,1,1.05.2021,Scoil Na Naomh Uilig,Newbridge,Kildare,Kildare County Council,W12FK10,Leinster,20271T,-6.7982137,53.180124
Secondary,3,1.05.2021,Pobalscoil na Tríonóide,Youghal,Cork,Cork County Council,P36Y763,Munster,91513S,-7.850556,51.95
Primary,2,30.04.2021,Abacas Special School,"Kilnamanagh, D24",Dublin,South Dublin County Council,D24A2XF,Dublin,20378O,-6.353967184457755,53.30683895
Pre-school,1,30.04.2021,Bright Sparks Montessori* (not a school),Borrisokane,Tipperary,,,Munster,Creche49,-8.1329107015534,52.99975125
Primary,1,30.04.2021,Clashmore NS,Clashmore,Waterford,Waterford County Council,P36ET78,Munster,02889O,-7.8193151,52.0089017
Primary,1,30.04.2021,Clonaghadoo NS,Geashill,Laois,Laois County Council,R35W427,Leinster,16160L,-7.3221015,53.2353767
Primary,1,30.04.2021,Collon NS,Collon,Louth,Louth County Council,A92WV96,Leinster,14578N,-6.4868544,53.7778345
Secondary,1,30.04.2021,Edmund Rice College,"Blanchardstown, D15",Dublin,Fingal County Council,,Dublin,68306H,-6.3777514,53.389792
Secondary,1,30.04.2021,Kennedy College,New Ross,Wexford,Wexford County Council,Y34YW08,Leinster,71660T,-6.9446066,52.3955671
Secondary,3,30.04.2021,Larkin Comm. College,"Champions Avenue, D1",Dublin,Dublin City Council,D01WD93,Dublin,76077O,-6.256385,53.3519005
Secondary,1,30.04.2021,Newpark Comp. School,Blackrock,Dublin,Dun Laoghaire Rathdown,A94EV70,Dublin,81001I,-6.1788342,53.3018639
Primary,1,30.04.2021,Scoil Mhuire,Oranmore,Galway,Galway County Council,H91F9T8,Connacht,13365O,-8.9285692,53.2725116
Primary,1,30.04.2021,St Declan's NS,Ashbourne,Meath,Meath County Council,A84KT02,Leinster,19486K,-6.3981743,53.5116146
Secondary,1,30.04.2021,St Dominic's College,"Cabra, D7",Dublin,Dublin City Council,D07NX47,Dublin,60731F,-6.2817747,53.3641011
Primary,1,30.04.2021,St Joseph's NS,Glenealy,Wicklow,Wicklow County Council,A67CD78,Leinster,00984V,-6.1430173,52.9668073
Primary,3,30.04.2021,St Mary's Parish Primary School,Drogheda,Louth,Louth County Council,A92XD80,Leinster,20205G,-6.3524183,53.7149877
Primary,1,30.04.2021,St Nicholas Primary School,Longwood,Meath,Meath County Council,A83K889,Leinster,16655P,-6.9242396,53.4550951
Secondary,1,30.04.2021,CBS High School,Clonmel,Tipperary,Tipperary (SR) County Council,E91AC03,Munster,65320J,-7.703889,52.355
Secondary,1,30.04.2021,Clonturk College,"Whitehall, D9",Dublin,Dublin City Council,D09W5K6,Dublin,76394D,-6.2431944,53.382668
Secondary,1,30.04.2021,Confey Community College,Leixlip,Kildare,Kildare County Council,W23VH66,Leinster,70691C,-6.4897438,53.3644766
Primary,1,30.04.2021,Scoil Cholmcille,Newtowncunningham,Donegal,Donegal County Council,F93WN51,Ulster,16820E,,
Primary,1,30.04.2021,St Joseph's Primary,"Fairview, D3",Dublin,Dublin City Council,D03H524,Dublin,18726W,-6.235517,53.36313
Primary,1,30.04.2021,St Paul's NS,Dooradoyle,Limerick,Limerick County Council,V94Y62V,Munster,19336O,-8.6494406,52.6359639
Secondary,1,30.04.2021,Árdscoil Rís,"Marino, D9",Dublin,Dublin City Council,D09AK30,Dublin,60420L,-6.2347491,53.3663095
Primary,1,30.04.2021,Scoil Bhríde,Naas,Kildare,Kildare County Council,W91YA62,Leinster,20114D,-6.6574093,53.2214677
Secondary,1,30.04.2021,Rosses Comm. School,Dungloe,Donegal,Donegal County Council,F94NX79,Ulster,91407T,,
Secondary,2,30.04.2021,Colaiste De Lacy,Ashbourne,Meath,Meath County Council,A84VF79,Leinster,76196W,-6.3981743,53.5116146
Secondary,3,30.04.2021,Pobalscoil na Tríonóide,Youghal,Cork,Cork County Council,P36Y763,Munster,91513S,-7.850556,51.95
Secondary,1,30.04.2021,Killina Presentation Secondary School,Rahan,Offaly,Offaly County Council,R35PX95,Leinster,65630B,-7.6153168,53.2810415
Primary,1,30.04.2021,Scoil Einne,Spiddal,Galway,Galway County Council,H91N9C9,Connacht,20115F,-9.3063031,53.2443899
Primary,1,30.04.2021,St Brigid's Senior Girls,"Finglas West, D11",Dublin,Dublin City Council,D11X262,Dublin,19929S,-6.305873184309119,53.3864407
Primary,1,30.04.2021,Marist National School,"Crumlin, D12",Dublin,Dublin City Council,D12YP98,Dublin,18386B,-6.3161673,53.3202316
Primary,2,30.04.2021,Scoil Maelruain Senior,"Tallaght, D24",Dublin,South Dublin County Council,D24EV18,Dublin,19463V,-6.3746438,53.2874685
Secondary,1,29.04.2021,St Oliver's Comm. College,Drogheda,Louth,Louth County Council,A92D766,Leinster,71761C,-6.3524183,53.7149877
Secondary,2,29.04.2021,Coláiste Chiaráin,Athlone,Roscommon,Roscommon County Council,N37AH97,Connacht,68325L,-8.04471113233565,53.45738255
Secondary,1,29.04.2021,Coláiste Choilm,Ballincollig,Cork,Cork County Council,P31NY77,Munster,71103K,-8.5893917,51.8883458
Secondary,1,29.04.2021,Gael-Choláiste Chill Dara,Naas,Kildare,Kildare County Council,W91E282,Leinster,68072I,-6.6574093,53.2214677
Primary,1,29.04.2021,Gaelscoil Chill Mhantáin,Merrymeeting,Wicklow,Wicklow County Council,A67N797,Leinster,20045K,-6.07654780153052,52.990481700000004
Primary,1,29.04.2021,Gaelscoil Ui Drisceoil,Glanmire,Cork,Cork County Council,T45YY19,Munster,20239A,-8.3960403,51.9196904
Secondary,1,29.04.2021,Greenhills College,"Greenhills, D12",Dublin,South Dublin County Council,D12DP8W,Dublin,70130I,-6.218504149999999,53.2978468
Secondary,1,29.04.2021,Nenagh College,Nenagh,Tipperary,Tipperary (NR) County Council,E45VF51,Munster,72440K,-8.196667,52.861944
Secondary,1,29.04.2021,O'Carolan College,Nobber,Meath,Meath County Council,A82PK51,Leinster,71980O,-6.750556,53.822778
Primary,1,29.04.2021,Powerstown Educate Together National School,"Tyrrelstown, D15",Dublin,Fingal County Council,D15VR80,Dublin,20384J,-6.392217673487099,53.416537649999995
Primary,1,29.04.2021,Cornafulla NS,Athlone,Roscommon,Roscommon County Council,N37FW74,Connacht,01607T,-8.04471113233565,53.45738255
Primary,1,29.04.2021,Scoil Na Naomh Uilig,Newbridge,Kildare,Kildare County Council,W12FK10,Leinster,20271T,-6.7982137,53.180124
Primary,4,29.04.2021,St Fiachra's SNS,"Beaumont, D5",Dublin,Dublin City Council,D05K3C3,Dublin,19628E,-6.2329828,53.3860585
Secondary,9,29.04.2021,St Gerard's School,Bray,Wicklow,Dun Laoghaire Rathdown,A98R242,Leinster,61811I,-6.1105049,53.2014604
Secondary,1,29.04.2021,St Mary's Secondary School,"Killester, D5",Dublin,Dublin City Council,D05K588,Dublin,60791A,-6.2049747,53.3727798
Secondary,1,29.04.2021,Thomond Comm. College,Limerick City,Limerick,Limerick City Council,V94V342,Munster,76414G,-8.6301239,52.661252
Primary,1,29.04.2021,Trim ETNS,Trim,Meath,Meath County Council,C15KA9P,Leinster,20444B,-6.789775120801938,53.5542857
Pre-school,1,29.04.2021,Newtowncunningham Community Playgroup* (not a school),Newtowncunningham,Donegal,,,Ulster,Creche47,,
Primary,1,29.04.2021,Scoil Mochua,Celbridge,Kildare,Kildare County Council,W23YY00,Leinster,19794V,-6.5396223,53.3383004
Secondary,1,29.04.2021,Beech Hill College,Tirkeenan,Monaghan,Monaghan County Council,H18P997,Ulster,72210Q,,
Primary,1,29.04.2021,Lusk JNS,Lusk,Dublin,Fingal County Council,,Dublin,20509D,-6.1658125,53.5255827
Primary,1,29.04.2021,Athenry Boys NS,Athenry,Galway,Galway County Council,H65R921,Connacht,17280D,-8.7468297,53.2991901
Primary,1,29.04.2021,St Brigid's GNS,"Killester, D5",Dublin,Dublin City Council,D05YV44,Dublin,16792C,-6.2049747,53.3727798
Secondary,1,29.04.2021,St Kevin's College,"Finglas, D11",Dublin,Dublin City Council,D11VF10,Dublin,60581M,-6.2992966,53.3902233
Primary,1,29.04.2021,St Conleths And Marys NS,Newbridge,Kildare,Kildare County Council,W12VN26,Leinster,17872F,-6.7982137,53.180124
Secondary,2,29.04.2021,St Brigid's College,Loughrea,Galway,Galway County Council,H62XF63,Connacht,71280J,-8.5690594,53.1981624
Secondary,2,29.04.2021,Rosses Comm. School,Dungloe,Donegal,Donegal County Council,F94NX79,Ulster,91407T,,
Secondary,2,29.04.2021,Pobalscoil na Tríonóide,Youghal,Cork,Cork County Council,P36Y763,Munster,91513S,-7.850556,51.95
Primary,8,29.04.2021,Scoil Maelruain Senior,"Tallaght, D24",Dublin,South Dublin County Council,D24EV18,Dublin,19463V,-6.3746438,53.2874685
Primary,1,29.04.2021,Ballyhass Mixed NS,Cecilstown,Cork,Cork County Council,P51K590,Munster,04953H,-8.7782713,52.1692203
Secondary,1,29.04.2021,Dominican College,"Drumcondra, D9",Dublin,Dublin City Council,D09A5X0,Dublin,60690R,-6.259665718431606,53.36334425
Primary,2,29.04.2021,Griffith Barracks Multi D School,"South Circular Road, D8",Dublin,Dublin City Council,D08KVY4,Dublin,20012S,-6.2869247,53.3322802
Primary,1,28.04.2021,St Laserians Mxd NS,Leighlinbridge,Carlow,Carlow County Council,R93YY72,Leinster,19784S,-6.9766258,52.7360233
Primary,1,28.04.2021,Gaelscoil Chorain,Youghal,Cork,Cork County Council,P36N263,Munster,19833F,-7.850556,51.95
Secondary,1,28.04.2021,Loreto Comm. School,Milford,Donegal,Donegal County Council,F92FK13,Ulster,91500J,-74.364454,41.059956
Primary,1,28.04.2021,St Joseph's Primary,"Fairview, D3",Dublin,Dublin City Council,D03H524,Dublin,18726W,-6.235517,53.36313
Primary,1,28.04.2021,St Joseph's Mxd NS,Dublin 3,Dublin,Dublin City Council,D03HF24,Dublin,19774P,-6.1854668060000355,53.361223100000004
Primary,1,28.04.2021,St Canices BNS,"Finglas, D11",Dublin,Dublin City Council,D11TW01,Dublin,18682F,-6.2992966,53.3902233
Secondary,1,28.04.2021,Lusk Comm. College,Lusk,Dublin,Fingal County Council,K45WN50,Dublin,76213T,-6.1658125,53.5255827
Primary,1,28.04.2021,Gaelscoil Ros Eo,Rush,Dublin,Fingal County Council,K56C867,Dublin,20334R,-6.0908956,53.5220444
Primary,1,28.04.2021,Holywell Educate Together National School,Swords,Dublin,Fingal County Council,K67AP99,Dublin,20348F,-6.2184562,53.4598264
Primary,1,28.04.2021,St Peter Apostle JNS,"Clondalkin, D22",Dublin,South Dublin County Council,D22AK09,Dublin,19569O,-6.3942689,53.3219624
Primary,2,28.04.2021,Scoil Maelruain Senior,"Tallaght, D24",Dublin,South Dublin County Council,D24EV18,Dublin,19463V,-6.3746438,53.2874685
Secondary,1,28.04.2021,Coláiste Mhuirlinne/Merlin College,Doughiska Road,Galway,Galway City Council,H91309Y,Connacht,76096S,-8.9815801,53.2845757
Secondary,1,28.04.2021,Scoil Chuimsitheach Chiaráin,Carraroe,Galway,Galway County Council,H91N267,Connacht,81012N,-9.599728,53.2636035
Pre-school,1,28.04.2021,Chuckles Creche* (not a school),Rathangan,Kildare,Kildare County Council,,Leinster,Creche45,-6.9929735,53.2203302
Primary,1,28.04.2021,Scoil Na Mainistreach,Celbridge,Kildare,Kildare County Council,W23VR98,Leinster,18551N,-6.5396223,53.3383004
Primary,1,28.04.2021,Presentation Primary School,Limerick City,Limerick,Limerick City Council,V94P028,Munster,20018H,-8.6301239,52.661252
Secondary,1,28.04.2021,St Joseph's Secondary School,Foxford,Mayo,Mayo County Council,F26W866,Connacht,64640W,-9.116667,53.983333
Primary,1,28.04.2021,Ard Rí CNS,Navan,Meath,Meath County Council,C15D340,Leinster,20352T,-6.6833615,53.651908
Secondary,1,28.04.2021,Coláiste Na Mí,Navan,Meath,Meath County Council,C15T028,Leinster,76173K,-6.6833615,53.651908
Primary,1,28.04.2021,Gaelscoil Eanna,Navan,Meath,Meath County Council,C15WF67,Leinster,19725C,-6.6833615,53.651908
Secondary,1,28.04.2021,Coláiste Muire,Ballymote,Sligo,Sligo County Council,F56NA09,Connacht,65140H,-8.5155338,54.0885294
Secondary,1,28.04.2021,Loreto Secondary School,Bray,Wicklow,Wicklow County Council,A98C822,Leinster,61820J,-6.1105049,53.2014604
Pre-school,1,28.04.2021,Building Blocks Montessori* (not a school),Arklow,Wicklow,Wicklow County Council,Y14KX31,Leinster,Creche46,-6.1540035,52.798221
Secondary,1,28.04.2021,St Oliver's Comm. College,Drogheda,Louth,Louth County Council,A92D766,Leinster,71761C,-6.3524183,53.7149877
Pre-school,1,28.04.2021,Gaelscoil na gCloch Liath Preschool* (not a school),Greystones,Wicklow,,,Leinster,Creche48,-6.0632184,53.1448901
Secondary,1,28.04.2021,St Macartan's College,Mullamurphy,Monaghan,Monaghan County Council,H18X704,Ulster,64810V,,
Primary,1,28.04.2021,St Raphael's Special School,CELBRIDGE,Kildare,Kildare County Council,W23F2P5,Leinster,18988G,-6.5396223,53.3383004
Secondary,1,28.04.2021,Moate Comm. School,Moate,Westmeath,Westmeath County Council,N37DY70,Leinster,91501L,-7.7240549,53.3962015
Secondary,1,28.04.2021,Maynooth Post Primary School,Maynooth,Kildare,Kildare County Council,W23HC66,Leinster,70700A,-6.5922806,53.3830239
Secondary,1,28.04.2021,Holy Family Secondary School,Newbridge,Kildare,Kildare County Council,W12YD71,Leinster,61682A,-6.7982137,53.180124
Primary,2,28.04.2021,St Eunan's Primary,Raphoe,Donegal,Donegal County Council,F93K851,Ulster,17828C,,
Primary,1,28.04.2021,CBS Primary School,Nenagh,Tipperary,Tipperary (Nr) County Council,E45VW44,Munster,16727O,-8.196667,52.861944
Primary,1,27.04.2021,Dernakesh NS,Cootehill,Cavan,Cavan County Council,H16KP86,Ulster,17601U,,
Primary,1,27.04.2021,Beaumont GNS,Cork City,Cork,Cork City Council,T12EK77,Munster,19232C,-8.465384593866203,51.88977945
Primary,1,27.04.2021,Kilcredan Primary School,Ladysbridge,Cork,Cork County Council,P25FW50,Munster,19351K,-8.0526632,51.9091198
Primary,1,27.04.2021,St Fergal's NS,Killeagh,Cork,Cork County Council,P36CP74,Munster,17297U,-8.462088277184323,52.013124700000006
Primary,1,27.04.2021,Gaelscoil Chorain,Youghal,Cork,Cork County Council,P36N263,Munster,19833F,-7.850556,51.95
Secondary,2,27.04.2021,Pobalscoil na Tríonóide,Youghal,Cork,Cork County Council,P36Y763,Munster,91513S,-7.850556,51.95
Primary,1,27.04.2021,Cloghroe Mixed NS,Cloghroe,Cork,Cork County Council,T23AH2R,Munster,07242M,-8.6185995,51.9197148
Primary,1,27.04.2021,Lurgybrack NS,Letterkenny,Donegal,Donegal County Council,F92HP82,Ulster,16672P,-7.7378749,54.9493649
Secondary,1,27.04.2021,Pobalscoil Ghaoth Dobhair,Gweedore,Donegal,Donegal County Council,F92HX52,Ulster,91409A,,
Pre-school,1,27.04.2021,Letterkenny Community Crèche* (not a school),Letterkenny,Donegal,Donegal County Council,F92PF29,Ulster,Creche44,-7.7378749,54.9493649
Primary,1,27.04.2021,Scoil Mhuire,Ramelton,Donegal,Donegal County Council,F92XHW5,Ulster,19491D,,
Secondary,2,27.04.2021,Rosses Comm. School,Dungloe,Donegal,Donegal County Council,F94NX79,Ulster,91407T,,
Secondary,1,27.04.2021,Alexandra College,"Milltown, D6",Dublin,Dublin City Council,D06KX50,Dublin,60910F,-6.2517585,53.3099139
Secondary,1,27.04.2021,Dominican College,"Drumcondra, D9",Dublin,Dublin City Council,D09A5X0,Dublin,60690R,-6.259665718431606,53.36334425
Primary,1,27.04.2021,St Attracta's Junior NS,"Ballinteer, D16",Dublin,Dun Laoghaire Rathdown,D16P891,Dublin,19537B,-6.2528361,53.2764266
Primary,1,27.04.2021,Scoil Ghrainne Comm. NS,"Clonee, D15",Dublin,Fingal County Council,D15Y5PR,Dublin,20247W,-6.418708,53.4067306
Secondary,1,27.04.2021,Skerries Comm. College,Skerries,Dublin,Fingal County Council,K34HH29,Dublin,76078Q,-6.1066867,53.5806379
Primary,1,27.04.2021,St Sylvester's Infant School,Malahide,Dublin,Fingal County Council,K36PA66,Dublin,17928G,-6.15367,53.4508401
Primary,2,27.04.2021,St Brigid's Kildare Town Primary School,Kildare Town,Kildare,Kildare County Council,R51XY30,Leinster,20427B,-6.9106278,53.1569027
Secondary,10,27.04.2021,Holy Family Secondary School,Newbridge,Kildare,Kildare County Council,W12YD71,Leinster,61682A,-6.7982137,53.180124
Secondary,1,27.04.2021,Confey Community College,Leixlip,Kildare,Kildare County Council,W23VH66,Leinster,70691C,-6.4897438,53.3644766
Primary,2,27.04.2021,Scoil Bhríde,Naas,Kildare,Kildare County Council,W91YA62,Leinster,20114D,-6.6574093,53.2214677
Primary,1,27.04.2021,St Paul's NS,Dooradoyle,Limerick,Limerick County Council,V94Y62V,Munster,19336O,-8.6494406,52.6359639
Pre-school,1,27.04.2021,Little Leprechauns* (not a school),Charlestown,Mayo,Mayo County Council,,Connacht,Creche38,-8.794167,53.964167
Primary,1,27.04.2021,Donore NS,Donore,Meath,Meath County Council,A92A568,Leinster,17856H,-6.4167748,53.6923216
Primary,1,26.04.2021,St Michael's NS,Cootehill,Cavan,Cavan County Council,H16P304,Ulster,20277I,,
Primary,1,26.04.2021,Scoil An Spioraid Naomh (Boys),Bishopstown,Cork,Cork City Council,T12X030,Munster,20077A,-8.5166631,51.8796067
Primary,1,26.04.2021,St Brigid's/Presentation Primary,Midleton,Cork,Cork County Council,P25R248,Munster,00512D,-8.1700962,51.9142741
Secondary,2,26.04.2021,Pobalscoil na Tríonóide,Youghal,Cork,Cork County Council,P36Y763,Munster,91513S,-7.850556,51.95
Primary,8,26.04.2021,Milford NS,Milford,Donegal,Donegal County Council,F92D744,Ulster,18151U,-74.364454,41.059956
Secondary,1,26.04.2021,St Eunan's College,Letterkenny,Donegal,Donegal County Council,F92RR71,Ulster,62830R,-7.7378749,54.9493649
Primary,1,26.04.2021,Scoil Mhuire,Ramelton,Donegal,Donegal County Council,F92XHW5,Ulster,19491D,,
Secondary,1,26.04.2021,Rosses Comm. School,Dungloe,Donegal,Donegal County Council,F94NX79,Ulster,91407T,,
Secondary,5,26.04.2021,Mount Temple Comp. School,"Clontarf, D3",Dublin,Dublin City Council,D03DX79,Dublin,81002K,-6.2400266,53.3665746
Secondary,1,26.04.2021,Alexandra College,"Milltown, D6",Dublin,Dublin City Council,D06KX50,Dublin,60910F,-6.2517585,53.3099139
Secondary,1,26.04.2021,Clonturk College,"Whitehall, D9",Dublin,Dublin City Council,D09W5K6,Dublin,76394D,-6.2431944,53.382668
Secondary,1,26.04.2021,St Aidan's C.B.S.,"Whitehall, D9",Dublin,Dublin City Council,D09XT54,Dublin,60481I,-6.2431944,53.382668
Secondary,1,26.04.2021,St Kevin's College,"Finglas, D11",Dublin,Dublin City Council,D11VF10,Dublin,60581M,-6.2992966,53.3902233
Primary,1,26.04.2021,Lusk JNS,Lusk,Dublin,Fingal County Council,,Dublin,20509D,-6.1658125,53.5255827
Secondary,1,26.04.2021,Castleknock Comm. College,"Castleknock, D15",Dublin,Fingal County Council,D15A996,Dublin,76062B,-6.3714239,53.3815285
Primary,1,26.04.2021,Holywell Educate Together National School,Swords,Dublin,Fingal County Council,K67AP99,Dublin,20348F,-6.2184562,53.4598264
Primary,1,26.04.2021,Scoil Maelruain Senior,"Tallaght, D24",Dublin,South Dublin County Council,D24EV18,Dublin,19463V,-6.3746438,53.2874685
Secondary,1,26.04.2021,Old Bawn Comm. School,"Tallaght, D24",Dublin,South Dublin County Council,D24HP38,Dublin,91336W,-6.3746438,53.2874685
Primary,1,26.04.2021,Citywest & Saggart Community National School,"Citywest, D24",Dublin,South Dublin County Council,D24R920,Dublin,20398U,-6.2588127,53.3398632
Primary,1,26.04.2021,Lucan ETNS,Lucan,Dublin,South Dublin County Council,K78C922,Dublin,20066S,-6.4501534,53.3567157
Secondary,1,26.04.2021,St Brigid's College,Loughrea,Galway,Galway County Council,H62XF63,Connacht,71280J,-8.5690594,53.1981624
Primary,1,26.04.2021,St Conleths And Marys NS,Newbridge,Kildare,Kildare County Council,W12VN26,Leinster,17872F,-6.7982137,53.180124
Secondary,3,26.04.2021,Patrician Secondary School,Newbridge,Kildare,Kildare County Council,W12XV38,Leinster,61681V,-6.7982137,53.180124
Secondary,3,26.04.2021,Holy Family Secondary School,Newbridge,Kildare,Kildare County Council,W12YD71,Leinster,61682A,-6.7982137,53.180124
Primary,1,26.04.2021,St Raphael's Special School,CELBRIDGE,Kildare,Kildare County Council,W23F2P5,Leinster,18988G,-6.5396223,53.3383004
Secondary,1,26.04.2021,St Paul's Sec. School,Monasterevin,Kildare,Kildare County Council,W34VX09,Leinster,61702D,-7.0634579,53.1426514
Primary,1,26.04.2021,St Michael's NS,Limerick City,Limerick,Limerick City Council,V94HX23,Munster,15320C,-8.6301239,52.661252
Primary,1,26.04.2021,Presentation Primary School,Limerick City,Limerick,Limerick City Council,V94P028,Munster,20018H,-8.6301239,52.661252
Secondary,2,26.04.2021,St Mary's Diocesan School,Drogheda,Louth,Louth County Council,A92TF24,Leinster,63841E,-6.3524183,53.7149877
Secondary,1,26.04.2021,Coláiste Na Mí,Navan,Meath,Meath County Council,C15T028,Leinster,76173K,-6.6833615,53.651908
Secondary,1,26.04.2021,St Louis Secondary School,Monaghan,Monaghan,Monaghan County Council,H18A079,Ulster,64820B,-7.2378664,54.1749317
Primary,16,26.04.2021,Scoil Bhríde Primary School,Edenderry,Offaly,Offaly County Council,R45X951,Leinster,20267F,-7.0488576,53.3433656
Primary,1,26.04.2021,St Patrick's NS,Edenderry,Offaly,Offaly County Council,R45XV22,Leinster,18364O,-7.0488576,53.3433656
Secondary,8,26.04.2021,St Joseph's C.B.S,Nenagh,Tipperary,Tipperary (NR) County Council,E45F890,Munster,65370B,-8.196667,52.861944
Primary,1,26.04.2021,St Peter and Paul NS,Clonmel,Tipperary,Tipperary (Sr) County Council,E91NF43,Munster,16729S,-7.703889,52.355
Secondary,1,26.04.2021,Moate Comm. School,Moate,Westmeath,Westmeath County Council,N37DY70,Leinster,91501L,-7.7240549,53.3962015
Secondary,1,26.04.2021,Loreto Secondary School,Bray,Wicklow,Wicklow County Council,A98C822,Leinster,61820J,-6.1105049,53.2014604
Secondary,1,26.04.2021,St Kilian's Comm. School,Bray,Wicklow,Wicklow County Council,A98PP76,Leinster,91376L,-6.1105049,53.2014604
Primary,1,25.04.2021,Midleton C.B.S.,Midleton,Cork,Cork County Council,P25EK13,Munster,16684W,-8.1700962,51.9142741
Primary,1,25.04.2021,St Brigid's/Presentation Primary,Midleton,Cork,Cork County Council,P25R248,Munster,00512D,-8.1700962,51.9142741
Secondary,3,25.04.2021,Loreto Comm. School,Milford,Donegal,Donegal County Council,F92FK13,Ulster,91500J,-74.364454,41.059956
Secondary,1,25.04.2021,Mulroy College,Letterkenny,Donegal,Donegal County Council,F92FX36,Ulster,71220O,-7.7378749,54.9493649
Primary,1,25.04.2021,Scoil Chróine,Dungloe,Donegal,Donegal County Council,F94YV26,Ulster,20421M,,
Secondary,1,25.04.2021,Árdscoil Rís,"Marino, D9",Dublin,Dublin City Council,D09AK30,Dublin,60420L,-6.2347491,53.3663095
Primary,1,25.04.2021,North Dublin NS Project,DUBLIN 9,Dublin,Dublin City Council,D09PE80,Dublin,19845M,-6.2602732,53.3497645
Primary,1,25.04.2021,Holy Spirit GNS,"Ballymun, D11",Dublin,Dublin City Council,D11X26P,Dublin,19209H,-6.264985999999999,53.38970865
Primary,1,25.04.2021,St Attracta's Junior NS,"Ballinteer, D16",Dublin,Dun Laoghaire Rathdown,D16P891,Dublin,19537B,-6.2528361,53.2764266
Secondary,1,25.04.2021,Castleknock Comm. College,"Castleknock, D15",Dublin,Fingal County Council,D15A996,Dublin,76062B,-6.3714239,53.3815285
Primary,2,25.04.2021,St Francis Xavier JNS,"Castleknock, D15",Dublin,Fingal County Council,D15CX84,Dublin,19435Q,-6.3714239,53.3815285
Secondary,1,25.04.2021,Loreto Secondary School,Balbriggan,Dublin,Fingal County Council,K32R248,Dublin,60010P,-6.1861964,53.609832
Secondary,1,25.04.2021,Patrician Secondary School,Newbridge,Kildare,Kildare County Council,W12XV38,Leinster,61681V,-6.7982137,53.180124
Secondary,2,25.04.2021,Maynooth Post Primary School,Maynooth,Kildare,Kildare County Council,W23HC66,Leinster,70700A,-6.5922806,53.3830239
Secondary,1,25.04.2021,Our Lady's College,Drogheda,Louth,Louth County Council,A92VP28,Leinster,63850F,-6.3524183,53.7149877
Secondary,1,25.04.2021,Beech Hill College,Tirkeenan,Monaghan,Monaghan County Council,H18P997,Ulster,72210Q,,
Secondary,1,25.04.2021,St Macartan's College,Mullamurphy,Monaghan,Monaghan County Council,H18X704,Ulster,64810V,,
Primary,1,25.04.2021,Cornamaddy NS,Athlone,Westmeath,Westmeath County Council,N37TR23,Leinster,17903N,-7.942705,53.4230832
Secondary,1,25.04.2021,St Joseph's Secondary School,Rochfortbridge,Westmeath,Westmeath County Council,N91XV56,Leinster,63310T,-7.2995811,53.4147036
Pre-school,1,25.04.2021,Little Crickets Creche* (not a school),Gorey,Wexford,Wexford County Council,,Leinster,Creche43,-6.296367241943167,52.6769779
Secondary,1,25.04.2021,Temple Carrig Sec. School,Greystones,Wicklow,Wicklow County Council,A63KT20,Leinster,68081J,-6.0632184,53.1448901
Secondary,1,24.04.2021,Loreto College,Cavan,Cavan,Cavan County Council,H12WV60,Ulster,61070P,-7.3601614,53.9911167
Secondary,1,24.04.2021,Pobalscoil na Tríonóide,Youghal,Cork,Cork County Council,P36Y763,Munster,91513S,-7.850556,51.95
Secondary,8,24.04.2021,Pobalscoil na Tríonóide,Youghal,Cork,Cork County Council,P36Y763,Munster,91513S,-7.850556,51.95
Secondary,1,24.04.2021,The Donahies Community School,Dublin 13,Dublin,Dublin City Council,D13YN77,Dublin,91318U,-6.162400642418439,53.39687754275643
Secondary,1,24.04.2021,Clonkeen College,Blackrock,Dublin,Dun Laoghaire Rathdown,A94P206,Dublin,60092U,-6.1788342,53.3018639
Secondary,1,24.04.2021,Hansfield Etss,"Hansfield, D15",Dublin,Fingal County Council,D15H1FC,Dublin,68101M,-6.4420549,53.3870051
Primary,2,24.04.2021,Sacred Heart of Jesus NS,"Mulhuddart, D15",Dublin,Fingal County Council,D15KF65,Dublin,19755L,-6.4134298,53.4060962
Primary,3,24.04.2021,Gaelscoil Ros Eo,Rush,Dublin,Fingal County Council,K56C867,Dublin,20334R,-6.0908956,53.5220444
Secondary,1,24.04.2021,Our Lady's College,Newtownsmith,Galway,Galway County Council,H91DP11,Connacht,68285C,-9.0548297,53.2747599
Primary,3,24.04.2021,Curragh Camp GNS,Curragh Camp,Kildare,Kildare County Council,R56Y860,Leinster,16636L,-6.834979748644395,53.1478453
Primary,1,24.04.2021,St Conleths And Marys NS,Newbridge,Kildare,Kildare County Council,W12VN26,Leinster,17872F,-6.7982137,53.180124
Primary,1,24.04.2021,Scoil Bhríde,Naas,Kildare,Kildare County Council,W91YA62,Leinster,20114D,-6.6574093,53.2214677
Primary,1,24.04.2021,Holy Family Junior Sch,Portlaoise,Laois,Laois County Council,R32CY05,Leinster,20270R,-7.3013754,53.0368853
Primary,1,24.04.2021,S N Seachnaill Naofa,Dunshaughlin,Meath,Meath County Council,A85R262,Leinster,17930Q,-6.5394448,53.512484
Primary,1,24.04.2021,St Patrick's NS,Killucan,Westmeath,Westmeath County Council,N91FX92,Leinster,08100U,-7.1427449,53.5137326
Primary,1,23.04.2021,St John's NS,Cratloe,Clare,Clare County Council,V95V596,Munster,04919H,-8.741787334500794,52.7016908
Primary,1,23.04.2021,Castlemartyr NS,Castlemartyr,Cork,Cork County Council,P25FK64,Munster,13647B,-8.054502,51.9122172
Primary,1,23.04.2021,Kilcredan Primary School,Ladysbridge,Cork,Cork County Council,P25FW50,Munster,19351K,-8.0526632,51.9091198
Primary,1,23.04.2021,Scoil Bhríde,Rathcormac,Cork,Cork County Council,P61ER24,Munster,17609N,-8.3078635,52.0501482
Primary,1,23.04.2021,Cloghroe Mixed NS,Cloghroe,Cork,Cork County Council,T23AH2R,Munster,07242M,-8.6185995,51.9197148
Secondary,2,23.04.2021,Loreto Comm. School,Milford,Donegal,Donegal County Council,F92FK13,Ulster,91500J,-74.364454,41.059956
Primary,1,23.04.2021,Gaelscoil Adhamhnáin,Letterkenny,Donegal,Donegal County Council,F92PV04,Ulster,19971R,-7.7378749,54.9493649
Primary,1,23.04.2021,Letterkenny Educate Together,Letterkenny,Donegal,Donegal County Council,F92XCW9,Ulster,20235P,-7.7378749,54.9493649
Primary,1,23.04.2021,St Brigid's GNS,"Killester, D5",Dublin,Dublin City Council,D05YV44,Dublin,16792C,-6.2049747,53.3727798
Primary,1,23.04.2021,Marist National School,"Crumlin, D12",Dublin,Dublin City Council,D12YP98,Dublin,18386B,-6.3161673,53.3202316
Secondary,1,23.04.2021,The Donahies Community School,Dublin 13,Dublin,Dublin City Council,D13YN77,Dublin,91318U,-6.162400642418439,53.39687754275643
Primary,1,23.04.2021,St Attracta's Junior NS,"Ballinteer, D16",Dublin,Dun Laoghaire Rathdown,D16P891,Dublin,19537B,-6.2528361,53.2764266
Primary,1,23.04.2021,Danu Comm. Special School,"Hansfield, D15",Dublin,Fingal County Council,D15TF6F,Dublin,20548N,-6.4420549,53.3870051
Primary,2,23.04.2021,Scoil Choilm Comm. NS,"Clonsilla, D15",Dublin,Fingal County Council,D15X582,Dublin,20241K,-6.423507,53.3827908
Secondary,1,23.04.2021,Coláiste Ghlór Na Mara,Balbriggan,Dublin,Fingal County Council,K32WV18,Dublin,68082L,-6.1861964,53.609832
Primary,1,23.04.2021,Bracken Educate Together NS,Balbriggan,Dublin,Fingal County Council,K32YE94,Dublin,20282B,-6.1861964,53.609832
Secondary,1,23.04.2021,Skerries Comm. College,Skerries,Dublin,Fingal County Council,K34HH29,Dublin,76078Q,-6.1066867,53.5806379
Primary,1,23.04.2021,St Cronans Junior NS,Swords,Dublin,Fingal County Council,K67DP28,Dublin,19456B,-6.2184562,53.4598264
Primary,1,23.04.2021,Divine Word NS,"Rathfarnham, D16",Dublin,South Dublin County Council,D16FF62,Dublin,19574H,-6.2881356328347575,53.29742105
Secondary,1,23.04.2021,Collinstown Park Comm. College,"Clondalkin, D22",Dublin,South Dublin County Council,D22X458,Dublin,70041J,-6.3942689,53.3219624
Primary,1,23.04.2021,Trinity Primary School,Tuam,Galway,Galway County Council,,Connacht,20547L,-8.8512875,53.5147915
Secondary,4,23.04.2021,Holy Family Secondary School,Newbridge,Kildare,Kildare County Council,W12YD71,Leinster,61682A,-6.7982137,53.180124
Secondary,2,23.04.2021,Piper's Hill College,Naas,Kildare,Kildare County Council,W91RW14,Leinster,70710D,-6.6574093,53.2214677
Primary,1,23.04.2021,Presentation Primary School,Limerick City,Limerick,Limerick City Council,V94P028,Munster,20018H,-8.6301239,52.661252
Primary,1,23.04.2021,An Mhodh Scoil,Limerick City,Limerick,Limerick City Council,V94W891,Munster,19894C,-8.6301239,52.661252
Secondary,1,23.04.2021,Ballymakenny College,Drogheda,Louth,Louth County Council,A92XET2,Leinster,91573N,-6.3524183,53.7149877
Primary,1,23.04.2021,St Stephen's NS,Navan,Meath,Meath County Council,C15AE03,Leinster,20179I,-6.6833615,53.651908
Secondary,1,23.04.2021,St Mary's Secondary School,Nenagh,Tipperary,Tipperary (NR) County Council,E45PX63,Munster,65380E,-8.196667,52.861944
Secondary,6,23.04.2021,Borrisokane Community College,Borrisokane,Tipperary,Tipperary (NR) County Council,E45WC59,Munster,72370P,-8.1329107015534,52.99975125
Secondary,1,23.04.2021,St Joseph's Secondary School,Rochfortbridge,Westmeath,Westmeath County Council,N91XV56,Leinster,63310T,-7.2995811,53.4147036
Primary,1,22.04.2021,Carrigabruise NS,Virginia,Cavan,Cavan County Council,A82HX80,Ulster,18857O,-77.497329,38.890086
Secondary,1,22.04.2021,Coláiste Achadh an Iuir,Virginia,Cavan,Cavan County Council,A82X224,Ulster,70390L,-77.497329,38.890086
Secondary,2,22.04.2021,Loreto Secondary School,Letterkenny,Donegal,Donegal County Council,F92X981,Ulster,62840U,-7.7378749,54.9493649
Primary,3,22.04.2021,Marist National School,"Crumlin, D12",Dublin,Dublin City Council,D12YP98,Dublin,18386B,-6.3161673,53.3202316
Primary,2,22.04.2021,St Ciaran's NS,Dublin 15,Dublin,Fingal County Council,D15ED83,Dublin,19644C,-6.287101473674747,53.40642945
Primary,1,22.04.2021,Mary Mother Of Hope Senior NS,"Castaheany, D15",Dublin,Fingal County Council,D15TA49,Dublin,20137P,-6.4267779,53.4026089
Primary,1,22.04.2021,St Joseph's Special Sch,"Tallaght, D24",Dublin,South Dublin County Council,D24ND34,Dublin,19520H,-6.3746438,53.2874685
Secondary,1,22.04.2021,Kildare Town Comm. School,Kildare Town,Kildare,Kildare County Council,R51D288,Leinster,91530S,-6.9106278,53.1569027
Primary,1,22.04.2021,Prosperous NS,Naas,Kildare,Kildare County Council,W91DT10,Leinster,18515J,-6.6574093,53.2214677
Primary,1,22.04.2021,Holy Child NS,Naas,Kildare,Kildare County Council,W91Y266,Leinster,19597T,-6.6574093,53.2214677
Secondary,2,22.04.2021,Drumshanbo Vocational School,Drumshanbo,Leitrim,Leitrim County Council,N41D623,Connacht,71570S,-8.0401507,54.0467406
Pre-school,1,22.04.2021,Just Kids Creche and Montessori* (not a school),Drogheda,Louth,Louth County Council,,Leinster,Creche42,-6.3524183,53.7149877
Primary,1,22.04.2021,Gaelscoil Na Mí,Ashbourne,Meath,Meath County Council,A84R667,Leinster,20382F,-6.3981743,53.5116146
Pre-school,1,22.04.2021,Little Angels Childcare* (not a school),Edenderry,Offaly,Offaly County Council,,Leinster,Creche41,-7.0488576,53.3433656
Secondary,1,22.04.2021,Oaklands Comm. College,Edenderry,Offaly,Offaly County Council,R45R727,Leinster,72540O,-7.0488576,53.3433656
Primary,2,22.04.2021,Scoil Bhríde Primary School,Edenderry,Offaly,Offaly County Council,R45X951,Leinster,20267F,-7.0488576,53.3433656
Secondary,1,22.04.2021,Roscommon Comm. School,Roscommon,Roscommon,Roscommon County Council,F42P959,Connacht,72290R,-8.19068,53.6312446
Primary,1,22.04.2021,Burgess NS,Nenagh,Tipperary,Tipperary (Nr) County Council,E45FP97,Munster,18164G,-8.196667,52.861944
Secondary,4,22.04.2021,St Mary's Secondary School,Nenagh,Tipperary,Tipperary (NR) County Council,E45PX63,Munster,65380E,-8.196667,52.861944
Primary,1,22.04.2021,St Columba's NS,"Glasnevin, D9",Dublin,Dublin City Council,D09YX46,Dublin,16659A,-6.2662007,53.3782873
Secondary,1,21.04.2021,Coláiste Achadh an Iuir,Virginia,Cavan,Cavan County Council,A82X224,Ulster,70390L,-77.497329,38.890086
Primary,1,21.04.2021,Scoil Padre Pio NS,Cork City,Cork,Cork City Council,T23DH24,Munster,18217B,-8.465384593866203,51.88977945
Primary,1,21.04.2021,Scoil Oilibhéir,Cork,Cork,Cork City Council,T23XF51,Munster,19730S,-8.4705942,51.898627
Secondary,1,21.04.2021,Pobalscoil na Tríonóide,Youghal,Cork,Cork County Council,P36Y763,Munster,91513S,-7.850556,51.95
Primary,1,21.04.2021,Scoil Cholmcille,Letterkenny,Donegal,Donegal County Council,F92A386,Ulster,18625Q,-7.7378749,54.9493649
Primary,1,21.04.2021,Milford NS,Milford,Donegal,Donegal County Council,F92D744,Ulster,18151U,-74.364454,41.059956
Secondary,1,21.04.2021,Loreto Comm. School,Milford,Donegal,Donegal County Council,F92FK13,Ulster,91500J,-74.364454,41.059956
Secondary,3,21.04.2021,Rosses Comm. School,Dungloe,Donegal,Donegal County Council,F94NX79,Ulster,91407T,,
Secondary,1,21.04.2021,Beneavin De La Salle College,"Finglas, D11",Dublin,Dublin City Council,D11NH7E,Dublin,60511O,-6.2992966,53.3902233
Primary,1,21.04.2021,St Francis Of Assisi NS,"Balgriffin, D13",Dublin,Dublin City Council,D13P5VY,Dublin,20304I,-6.1767129,53.4085711
Secondary,1,21.04.2021,Pobalscoil Neasáin,Dublin 13,Dublin,Fingal County Council,D13F9K2,Dublin,91342R,-6.162400642418439,53.39687754275643
Secondary,1,21.04.2021,Castleknock Comm. College,"Castleknock, D15",Dublin,Fingal County Council,D15A996,Dublin,76062B,-6.3714239,53.3815285
Primary,1,21.04.2021,St Francis Xavier JNS,"Castleknock, D15",Dublin,Fingal County Council,D15CX84,Dublin,19435Q,-6.3714239,53.3815285
Primary,1,21.04.2021,Mary Mother Of Hope Junior NS,"Clonee, D15",Dublin,Fingal County Council,D15TA49,Dublin,20309S,-6.418708,53.4067306
Primary,2,21.04.2021,Scoil Choilm Comm. NS,"Clonsilla, D15",Dublin,Fingal County Council,D15X582,Dublin,20241K,-6.423507,53.3827908
Primary,1,21.04.2021,Scoil Mhuire Sin,"Mulhuddart, D15",Dublin,Fingal County Council,D15YK58,Dublin,19694R,-6.4134298,53.4060962
Secondary,1,21.04.2021,Sancta Maria College,"Rathfarnham, D16",Dublin,South Dublin County Council,D16V389,Dublin,60341P,-6.2881356328347575,53.29742105
Primary,1,21.04.2021,St Bernadette's Junior NS,"Clondalkin, D22",Dublin,South Dublin County Council,D22CD39,Dublin,19743E,-6.3942689,53.3219624
Primary,1,21.04.2021,St Kilian's JNS,"Tallaght, D24",Dublin,South Dublin County Council,D24H303,Dublin,19556F,-6.3746438,53.2874685
Primary,1,21.04.2021,Lucan East ETNS,Lucan,Dublin,South Dublin County Council,K78FA37,Dublin,20303G,-6.4501534,53.3567157
Primary,1,21.04.2021,Gaelscoil Riada,Athenry,Galway,Galway County Council,H65WD54,Connacht,20237T,-8.7468297,53.2991901
Primary,1,21.04.2021,St Mark's Special School,NEWBRIDGE,Kildare,Kildare County Council,W12XY09,Leinster,19455W,-6.7982137,53.180124
Secondary,1,21.04.2021,Coláiste Chiaráin,Leixlip,Kildare,Kildare County Council,W23RW14,Leinster,91371B,-6.4897438,53.3644766
Secondary,2,21.04.2021,CBS Naas,Naas,Kildare,Kildare County Council,W91VF9H,Leinster,61710C,-6.6574093,53.2214677
Primary,1,21.04.2021,S N Naomh Eoin,Killenard,Laois,Laois County Council,R32F782,Leinster,18641O,-7.1473275,53.1328299
Pre-school,7,21.04.2021,Knightstown Montessori* (not a school),Navan,Meath,Meath County Council,,Leinster,Creche39,-6.6833615,53.651908
Primary,1,21.04.2021,St Michael's BNS,Trim,Meath,Meath County Council,C15FK19,Leinster,05630L,-6.789775120801938,53.5542857
Secondary,2,21.04.2021,St Mary's Secondary School,Edenderry,Offaly,Offaly County Council,R45TY36,Leinster,65582Q,-7.0488576,53.3433656
Primary,4,21.04.2021,Scoil Bhríde Primary School,Edenderry,Offaly,Offaly County Council,R45X951,Leinster,20267F,-7.0488576,53.3433656
Secondary,1,20.04.2021,Coláiste Achadh an Iuir,Virginia,Cavan,Cavan County Council,A82X224,Ulster,70390L,-77.497329,38.890086
Primary,1,20.04.2021,Kilcredan Primary School,Ladysbridge,Cork,Cork County Council,P25FW50,Munster,19351K,-8.0526632,51.9091198
Secondary,2,20.04.2021,St Aloysius College,Carrigtwohill,Cork,Cork County Council,T45CF61,Munster,62140P,-8.2596631,51.9091217
Primary,1,20.04.2021,Milford NS,Milford,Donegal,Donegal County Council,F92D744,Ulster,18151U,-74.364454,41.059956
Primary,1,20.04.2021,Scoil Naomh Fiachra,Letterkenny,Donegal,Donegal County Council,F92WD21,Ulster,12077E,-7.7378749,54.9493649
Secondary,5,20.04.2021,Rosses Comm. School,Dungloe,Donegal,Donegal County Council,F94NX79,Ulster,91407T,,
Primary,1,20.04.2021,Mary Queen of Angels 2,"Ballyfermot, D10",Dublin,Dublin City Council,D10C527,Dublin,18843D,-6.3587715,53.3427187
Pre-school,1,20.04.2021,Hyde and Seek Creche* (not a school),"Glasnevin, D11",Dublin,Dublin City Council,D11VNN2,Dublin,Creche40,-6.2662007,53.3782873
Secondary,1,20.04.2021,Coolmine Comm. School,"Clonsilla, D15",Dublin,Fingal County Council,D15FW97,Dublin,91315O,-6.423507,53.3827908
Primary,1,20.04.2021,St Philip The Apostle Junior NS,"Clonsilla, D15",Dublin,Fingal County Council,D15V124,Dublin,19601H,-6.423507,53.3827908
Primary,1,20.04.2021,Scoil Choilm Comm. NS,"Clonsilla, D15",Dublin,Fingal County Council,D15X582,Dublin,20241K,-6.423507,53.3827908
Primary,1,20.04.2021,Scoil Mhuire Sin,"Mulhuddart, D15",Dublin,Fingal County Council,D15YK58,Dublin,19694R,-6.4134298,53.4060962
Secondary,3,20.04.2021,St Columba's College,Dublin 16,Dublin,South Dublin County Council,D16CH92,Dublin,60320H,-6.2602732,53.3497645
Secondary,1,20.04.2021,Old Bawn Comm. School,"Tallaght, D24",Dublin,South Dublin County Council,D24HP38,Dublin,91336W,-6.3746438,53.2874685
Primary,1,20.04.2021,Citywest ETNS,"Citywest, D24",Dublin,South Dublin County Council,D24TR94,Dublin,20402I,-6.2588127,53.3398632
Secondary,1,20.04.2021,Our Lady's School,"Terenure, D6W",Dublin,South Dublin County Council,D6WKF44,Dublin,60860Q,-6.289414232718017,53.304632643353344
Primary,1,20.04.2021,Scoil Náisiúnta Naomh Pádraig,CURRAGH CAMP,Kildare,Kildare County Council,R56Y623,Leinster,16635J,-6.834979748644395,53.1478453
Secondary,1,20.04.2021,Holy Family Secondary School,Newbridge,Kildare,Kildare County Council,W12YD71,Leinster,61682A,-6.7982137,53.180124
Primary,1,20.04.2021,St Corbans BNS,Naas,Kildare,Kildare County Council,W91E635,Leinster,17254C,-6.6574093,53.2214677
Secondary,1,20.04.2021,CBS Naas,Naas,Kildare,Kildare County Council,W91VF9H,Leinster,61710C,-6.6574093,53.2214677
Primary,1,20.04.2021,Mercy Convent Primary School,Naas,Kildare,Kildare County Council,W91XC94,Leinster,15040T,-6.6574093,53.2214677
Primary,1,20.04.2021,Holy Child NS,Naas,Kildare,Kildare County Council,W91Y266,Leinster,19597T,-6.6574093,53.2214677
Primary,1,20.04.2021,Scoil Dean Cussen,Bruff,Limerick,Limerick County Council,V35FT99,Munster,20133H,-8.5474944,52.4755288
Secondary,1,20.04.2021,John The Baptist Comm. School,Hospital,Limerick,Limerick County Council,V35WT25,Munster,91502N,-8.4306773,52.4721802
Primary,1,20.04.2021,Culleens NS,Ballina,Mayo,Mayo County Council,F26TF97,Connacht,07054L,-9.1532099,54.1143359
Secondary,3,20.04.2021,St Mary's Secondary School,Edenderry,Offaly,Offaly County Council,R45TY36,Leinster,65582Q,-7.0488576,53.3433656
Primary,1,20.04.2021,Sn Muire Gan Smal,Curry,Sligo,Sligo County Council,F91DT35,Connacht,19389M,-8.7735669,54.0015811
Secondary,19,20.04.2021,St Joseph's C.B.S,Nenagh,Tipperary,Tipperary (NR) County Council,E45F890,Munster,65370B,-8.196667,52.861944
Secondary,1,20.04.2021,Borrisokane Community College,Borrisokane,Tipperary,Tipperary (NR) County Council,E45WC59,Munster,72370P,-8.1329107015534,52.99975125
Primary,1,20.04.2021,St Paul's NS,Athlone,Westmeath,Westmeath County Council,N37E973,Leinster,18405C,-7.942705,53.4230832
Secondary,1,20.04.2021,St Finian's College,Mullingar,Westmeath,Westmeath County Council,N91H593,Leinster,63280N,-7.3415454,53.5263035
Secondary,1,19.04.2021,St Patrick's College,Cavan,Cavan,Cavan County Council,H12K827,Ulster,61060M,-7.3601614,53.9911167
Secondary,1,19.04.2021,Loreto Comm. School,Milford,Donegal,Donegal County Council,F92FK13,Ulster,91500J,-74.364454,41.059956
Secondary,1,19.04.2021,Pobalscoil Ghaoth Dobhair,Gweedore,Donegal,Donegal County Council,F92HX52,Ulster,91409A,,
Secondary,3,19.04.2021,Loreto Secondary School,Letterkenny,Donegal,Donegal County Council,F92X981,Ulster,62840U,-7.7378749,54.9493649
Primary,1,19.04.2021,Scoil Cholmcille,Newtowncunningham,Donegal,Donegal County Council,F93WN51,Ulster,16820E,,
Primary,1,19.04.2021,St Joseph's Mxd NS,Dublin 3,Dublin,Dublin City Council,D03HF24,Dublin,19774P,-6.1854668060000355,53.361223100000004
Secondary,1,19.04.2021,Alexandra College,"Milltown, D6",Dublin,Dublin City Council,D06KX50,Dublin,60910F,-6.2517585,53.3099139
Secondary,1,19.04.2021,Scoil Chaitríona,"Glasnevin, D9",Dublin,Dublin City Council,D09TW99,Dublin,60700R,-6.2662007,53.3782873
Secondary,1,19.04.2021,St Aidan's C.B.S.,"Whitehall, D9",Dublin,Dublin City Council,D09XT54,Dublin,60481I,-6.2431944,53.382668
Primary,1,19.04.2021,St Canice's GNS,"Finglas, D11",Dublin,Dublin City Council,D11C927,Dublin,18683H,-6.2992966,53.3902233
Primary,1,19.04.2021,St Vincent's Primary School,"Glasnevin, D11",Dublin,Dublin City Council,D11HX78,Dublin,17214N,-6.2662007,53.3782873
Primary,1,19.04.2021,St Brigid's GNS,"Glasnevin, D11",Dublin,Dublin City Council,D11VF95,Dublin,16577V,-6.2662007,53.3782873
Secondary,1,19.04.2021,Drimnagh Castle Secondary School,"Walkinstown, D12",Dublin,Dublin City Council,D12K682,Dublin,60480G,-6.338666191460039,53.324878798326196
Secondary,2,19.04.2021,Grange Comm. College,"Donaghmede, D13",Dublin,Dublin City Council,D13NX25,Dublin,70020B,-6.1635775,53.3948612
Primary,1,19.04.2021,St Ciaran's NS,Dublin 15,Dublin,Fingal County Council,D15ED83,Dublin,19644C,-6.287101473674747,53.40642945
Primary,1,19.04.2021,Mary Mother Of Hope Junior NS,"Clonee, D15",Dublin,Fingal County Council,D15TA49,Dublin,20309S,-6.418708,53.4067306
Primary,1,19.04.2021,Mary Mother Of Hope Senior NS,"Castaheany, D15",Dublin,Fingal County Council,D15TA49,Dublin,20137P,-6.4267779,53.4026089
Primary,1,19.04.2021,Tyrrelstown ETNS,"Tyrrelstown, D15",Dublin,Fingal County Council,D15X938,Dublin,20201V,-6.392217673487099,53.416537649999995
Secondary,1,19.04.2021,Donabate Comm. College,Donabate,Dublin,Fingal County Council,K36F598,Dublin,76104O,-6.1485698,53.4864092
Secondary,1,19.04.2021,Holy Family Comm. School,Rathcoole,Dublin,South Dublin County Council,D24FT54,Dublin,91301D,-6.4679425,53.2813003
Primary,1,19.04.2021,Citywest ETNS,"Citywest, D24",Dublin,South Dublin County Council,D24TR94,Dublin,20402I,-6.2588127,53.3398632
Secondary,1,19.04.2021,Coláiste na Coiribe,Cnoc na Cathrach,Galway,Galway City Council,H91Y8C2,Connacht,71330V,-9.1090937,53.2687291
Primary,3,19.04.2021,Scoil Chroi Naofa,Athenry,Galway,Galway County Council,H65C860,Connacht,16071M,-8.7468297,53.2991901
Primary,2,19.04.2021,Scoil Naomh Padraig,Celbridge,Kildare,Kildare County Council,W23Y300,Leinster,20257C,-6.5396223,53.3383004
Secondary,1,19.04.2021,St Clare's Comp. School,Manorhamilton,Leitrim,Leitrim County Council,F91FY82,Connacht,81013P,-8.1754431,54.3040414
Secondary,4,19.04.2021,Drumshanbo Vocational School,Drumshanbo,Leitrim,Leitrim County Council,N41D623,Connacht,71570S,-8.0401507,54.0467406
Secondary,1,19.04.2021,Ardscoil Phadraig,Granard,Longford,Longford County Council,N39RR79,Leinster,71710I,-7.4910079,53.779362
Primary,1,19.04.2021,Gaelscoil Na Mí,Ashbourne,Meath,Meath County Council,A84R667,Leinster,20382F,-6.3981743,53.5116146
Primary,3,19.04.2021,Ashbourne Comm. School,Ashbourne,Meath,Meath County Council,A84T925,Leinster,91495T,-6.3981743,53.5116146
Primary,3,19.04.2021,Ashbourne ETNS,Ashbourne,Meath,Meath County Council,A84TW90,Leinster,20396Q,-6.3981743,53.5116146
Primary,1,19.04.2021,Duleek BNS,Duleek,Meath,Meath County Council,A92C903,Leinster,17839H,-6.414756,53.6563402
Primary,1,19.04.2021,Ard Rí CNS,Navan,Meath,Meath County Council,C15D340,Leinster,20352T,-6.6833615,53.651908
Secondary,1,19.04.2021,St Mary's Secondary School,Edenderry,Offaly,Offaly County Council,R45TY36,Leinster,65582Q,-7.0488576,53.3433656
Secondary,1,18.04.2021,Loreto College,Cavan,Cavan,Cavan County Council,H12WV60,Ulster,61070P,-7.3601614,53.9911167
Primary,1,18.04.2021,St John's NS,Cratloe,Clare,Clare County Council,V95V596,Munster,04919H,-8.741787334500794,52.7016908
Secondary,1,18.04.2021,St Colman's Comm. College,Midleton,Cork,Cork County Council,P25W658,Munster,71050P,-8.1700962,51.9142741
Secondary,1,18.04.2021,Pobalscoil na Tríonóide,Youghal,Cork,Cork County Council,P36Y763,Munster,91513S,-7.850556,51.95
Secondary,1,18.04.2021,Coláiste An Chraoibhin,Fermoy,Cork,Cork County Council,P61VX78,Munster,70990M,-8.275223,52.1381665
Primary,1,18.04.2021,Scoil Cholmcille,Letterkenny,Donegal,Donegal County Council,F92A386,Ulster,18625Q,-7.7378749,54.9493649
Secondary,1,18.04.2021,Loreto Comm. School,Milford,Donegal,Donegal County Council,F92FK13,Ulster,91500J,-74.364454,41.059956
Secondary,2,18.04.2021,Rosses Comm. School,Dungloe,Donegal,Donegal County Council,F94NX79,Ulster,91407T,,
Secondary,1,18.04.2021,Mount Temple Comp. School,"Clontarf, D3",Dublin,Dublin City Council,D03DX79,Dublin,81002K,-6.2400266,53.3665746
Primary,1,18.04.2021,St Eithne's Girls NS,"Raheny, D5",Dublin,Dublin City Council,D05NH04,Dublin,18969C,-6.161141164682835,53.38507445921227
Primary,1,18.04.2021,Holy Child GNS,"Whitehall, D9",Dublin,Dublin City Council,D09YR59,Dublin,20338C,-6.2431944,53.382668
Primary,1,18.04.2021,Scoil Naomh Colmcille,"Donaghmede, D13",Dublin,Dublin City Council,D13XP49,Dublin,19611K,-6.1635775,53.3948612
Pre-school,1,18.04.2021,Missus Tatty's Nursery* (not a school),"Clonee, D15",Dublin,Fingal County Council,D15NXT3,Dublin,Creche19,-6.418708,53.4067306
Primary,1,18.04.2021,Tyrrelstown ETNS,"Tyrrelstown, D15",Dublin,Fingal County Council,D15X938,Dublin,20201V,-6.392217673487099,53.416537649999995
Primary,1,18.04.2021,Scoil Naomh Brid,Celbridge,Kildare,Kildare County Council,W23R8Y9,Leinster,16566Q,-6.5396223,53.3383004
Primary,1,18.04.2021,Naas Comm. NS,Naas,Kildare,Kildare County Council,W91HF68,Leinster,20351R,-6.6574093,53.2214677
Secondary,1,18.04.2021,Ballymakenny College,Drogheda,Louth,Louth County Council,A92XET2,Leinster,91573N,-6.3524183,53.7149877
Pre-school,1,18.04.2021,Little Leprechauns* (not a school),Charlestown,Mayo,Mayo County Council,,Connacht,Creche38,-8.794167,53.964167
Pre-school,1,18.04.2021,Knightstown Montessori* (not a school),Navan,Meath,Meath County Council,,Leinster,Creche39,-6.6833615,53.651908
Primary,1,18.04.2021,St Cóman's Wood Primary School,Roscommon,Roscommon,Roscommon County Council,F42YH60,Connacht,20498B,-8.19068,53.6312446
Primary,2,18.04.2021,Cootehall NS,Cootehall,Roscommon,Roscommon County Council,F52TV26,Connacht,19720P,-8.153611,53.9825
Secondary,1,18.04.2021,Our Lady's Secondary School,Templemore,Tipperary,Tipperary (NR) County Council,E41EA48,Munster,65440T,-7.833889,52.794722
Secondary,1,18.04.2021,St Joseph's C.B.S,Nenagh,Tipperary,Tipperary (NR) County Council,E45F890,Munster,65370B,-8.196667,52.861944
Secondary,1,18.04.2021,Athlone Comm. College,Athlone,Westmeath,Westmeath County Council,N37Y985,Leinster,71410T,-7.942705,53.4230832
Pre-school,1,17.04.2021,Tots to Teens* (not a school),Tullow,Carlow,Carlow County Council,,Leinster,Creche34,-6.7377301,52.803146
Primary,1,17.04.2021,St Mary's NS,Lifford,Donegal,Donegal County Council,F93FD92,Ulster,14910S,-7.483095,54.832219
Primary,1,17.04.2021,St John Bosco SBS,Dublin 7,Dublin,Dublin City Council,D07V654,Dublin,17912O,-6.2602732,53.3497645
Primary,1,17.04.2021,Marist National School,"Crumlin, D12",Dublin,Dublin City Council,D12YP98,Dublin,18386B,-6.3161673,53.3202316
Primary,1,17.04.2021,Castaheany Educate Together NS,Dublin 15,Dublin,Fingal County Council,D15AE61,Dublin,20186F,-6.287101473674747,53.40642945
Secondary,1,17.04.2021,Old Bawn Comm. School,"Tallaght, D24",Dublin,South Dublin County Council,D24HP38,Dublin,91336W,-6.3746438,53.2874685
Primary,1,17.04.2021,Scoil Chroi Naofa,Athenry,Galway,Galway County Council,H65C860,Connacht,16071M,-8.7468297,53.2991901
Primary,1,17.04.2021,Athenry Boys NS,Athenry,Galway,Galway County Council,H65R921,Connacht,17280D,-8.7468297,53.2991901
Secondary,1,17.04.2021,Coláiste Íosagáin,Portarlington,Laois,Laois County Council,R32HV25,Leinster,68068R,-7.191111,53.162222
Pre-school,1,17.04.2021,Bo Peep Kidz* (not a school),Drumshanbo,Leitrim,Leitrim County Council,,Connacht,Creche37,-8.0401507,54.0467406
Secondary,1,17.04.2021,Ardscoil Mhuire,Limerick City,Limerick,Limerick City Council,V94X47D,Munster,64290V,-8.6301239,52.661252
Secondary,2,17.04.2021,Coláiste Nano Nagle,Limerick City,Limerick,Limerick City Council,V94YW24,Munster,64250J,-8.6301239,52.661252
Primary,1,17.04.2021,Le Chéile National School,Limerick,Limerick,Limerick County Council,V94X2TR,Munster,20459O,-8.6301239,52.661252
Secondary,1,17.04.2021,Sacred Heart Secondary School,Drogheda,Louth,Louth County Council,A92K796,Leinster,63860I,-6.3524183,53.7149877
Primary,1,17.04.2021,Gaelscoil Na Mí,Ashbourne,Meath,Meath County Council,A84R667,Leinster,20382F,-6.3981743,53.5116146
Secondary,1,17.04.2021,Colaiste De Lacy,Ashbourne,Meath,Meath County Council,A84VF79,Leinster,76196W,-6.3981743,53.5116146
Secondary,1,17.04.2021,St Mary's Secondary School,Edenderry,Offaly,Offaly County Council,R45TY36,Leinster,65582Q,-7.0488576,53.3433656
Primary,5,17.04.2021,St Joseph's NS,MILLTOWNPASS,Westmeath,Westmeath County Council,N91D792,Leinster,16304J,-7.2441662,53.4420544
Secondary,1,16.04.2021,Tullow Comm. School,Tullow,Carlow,Carlow County Council,R93DT20,Leinster,91356F,-6.7377301,52.803146
Secondary,1,16.04.2021,Bailieborough Community School,Bailieborough,Cavan,Cavan County Council,A82P585,Ulster,91351S,,
Secondary,1,16.04.2021,Loreto College,Cavan,Cavan,Cavan County Council,H12WV60,Ulster,61070P,-7.3601614,53.9911167
Secondary,1,16.04.2021,St Mogue's College,Bawnboy,Cavan,Cavan County Council,H14VW13,Ulster,70360C,,
Primary,1,16.04.2021,St Brendan's NS,Cork,Cork,Cork City Council,T23AK29,Munster,19427R,-8.4705942,51.898627
Primary,1,16.04.2021,Lurgybrack NS,Letterkenny,Donegal,Donegal County Council,F92HP82,Ulster,16672P,-7.7378749,54.9493649
Primary,1,16.04.2021,Gaelscoil Bhaile Munna,"Ballymun, D9",Dublin,Dublin City Council,D09TY74,Dublin,20015B,-6.2581262,53.4093217
Secondary,1,16.04.2021,Dominican College Sion Hill,Blackrock,Dublin,Dun Laoghaire Rathdown,A94TP97,Dublin,60070K,-6.1788342,53.3018639
Secondary,1,16.04.2021,Balbriggan Comm. College,Balbriggan,Dublin,Fingal County Council,K32HE19,Dublin,70010V,-6.1861964,53.609832
Primary,1,16.04.2021,St Molaga's Senior NS,Balbriggan,Dublin,Fingal County Council,K32Y662,Dublin,16970A,-6.1861964,53.609832
Primary,1,16.04.2021,St Patrick's Jnr Mixed,Skerries,Dublin,Fingal County Council,K34D799,Dublin,16333Q,-6.1066867,53.5806379
Primary,1,16.04.2021,Gaelscoil Mhic Amhlaigh,Cnoc na Cathrach,Galway,Galway City Council,H91FV4D,Connacht,19994G,-9.1090937,53.2687291
Primary,1,16.04.2021,Scoil Chroi Naofa,Athenry,Galway,Galway County Council,H65C860,Connacht,16071M,-8.7468297,53.2991901
Secondary,1,16.04.2021,Coláiste Íosagáin,Portarlington,Laois,Laois County Council,R32HV25,Leinster,68068R,-7.191111,53.162222
Secondary,1,16.04.2021,Meán Scoil Muire,Longford Town,Longford,Longford County Council,N39H6R2,Leinster,63760E,-7.8726908,53.7061441
Secondary,1,16.04.2021,Coláiste Choilm,Tullamore,Offaly,Offaly County Council,R35WF97,Leinster,65610S,-7.4928384,53.2743191
Primary,1,16.04.2021,Gaelscoil An Eiscir Riada,Tullamore,Offaly,Offaly County Council,R35YP90,Leinster,19990V,-7.4928384,53.2743191
Secondary,1,16.04.2021,Oaklands Comm. College,Edenderry,Offaly,Offaly County Council,R45R727,Leinster,72540O,-7.0488576,53.3433656
Secondary,1,16.04.2021,St Mary's Secondary School,Edenderry,Offaly,Offaly County Council,R45TY36,Leinster,65582Q,-7.0488576,53.3433656
Primary,1,16.04.2021,Scoil Bhríde Primary School,Edenderry,Offaly,Offaly County Council,R45X951,Leinster,20267F,-7.0488576,53.3433656
Primary,1,16.04.2021,St Cóman's Wood Primary School,Roscommon,Roscommon,Roscommon County Council,F42YH60,Connacht,20498B,-8.19068,53.6312446
Secondary,1,16.04.2021,Our Lady's Secondary School,Templemore,Tipperary,Tipperary (NR) County Council,E41EA48,Munster,65440T,-7.833889,52.794722
Secondary,1,16.04.2021,St Mary's Secondary School,Nenagh,Tipperary,Tipperary (NR) County Council,E45PX63,Munster,65380E,-8.196667,52.861944
Primary,1,16.04.2021,Glor Na Mara NS,Tramore,Waterford,Waterford County Council,X91Y924,Munster,20116H,-7.1496198989537,52.1835974
Secondary,1,16.04.2021,C.B.S. Mullingar,Mullingar,Westmeath,Westmeath County Council,N91AT04,Leinster,63270K,-7.3415454,53.5263035
Primary,2,16.04.2021,St Mary's Primary School,Mullingar,Westmeath,Westmeath County Council,N91HE22,Leinster,18381O,-7.3415454,53.5263035
Secondary,1,16.04.2021,Mercy Kilbeggan,Kilbeggan,Westmeath,Westmeath County Council,N91K123,Leinster,63221U,-7.495045761088901,53.36645955
Secondary,1,16.04.2021,Creagh College,Gorey,Wexford,Wexford County Council,Y25V6Y9,Leinster,76127D,-6.296367241943167,52.6769779
Pre-school,1,15.04.2021,Tots to Teens* (not a school),Tullow,Carlow,Carlow County Council,,Leinster,Creche34,-6.7377301,52.803146
Primary,1,15.04.2021,Holy Family Junior School,Ennis,Clare,Clare County Council,V95YR79,Munster,17957N,-8.983747,52.8435152
Primary,1,15.04.2021,Scoil Naomh Brid,Lifford,Donegal,Donegal County Council,F93YV78,Ulster,19280N,-7.483095,54.832219
Primary,1,15.04.2021,Castaheany Educate Together NS,Dublin 15,Dublin,Fingal County Council,D15AE61,Dublin,20186F,-6.287101473674747,53.40642945
Primary,1,15.04.2021,Thornleigh Educate Together National School,Swords,Dublin,Fingal County Council,K67PH68,Dublin,20302E,-6.2184562,53.4598264
Secondary,1,15.04.2021,Old Bawn Comm. School,"Tallaght, D24",Dublin,South Dublin County Council,D24HP38,Dublin,91336W,-6.3746438,53.2874685
Secondary,1,15.04.2021,Heywood Comm. School,Portlaoise,Laois,Laois County Council,R32FE04,Leinster,91427C,-7.3013754,53.0368853
Primary,1,15.04.2021,Askeaton Senior NS,ASKEATON,Limerick,Limerick County Council,V94HD30,Munster,18530F,-8.975556,52.599722
Primary,1,15.04.2021,Daingean NS,Daingean,Offaly,Offaly County Council,R35AH95,Leinster,16620T,-7.2922288,53.2973447
Secondary,1,15.04.2021,Coláiste Choilm,Tullamore,Offaly,Offaly County Council,R35WF97,Leinster,65610S,-7.4928384,53.2743191
Primary,1,15.04.2021,St Joseph's NS,MILLTOWNPASS,Westmeath,Westmeath County Council,N91D792,Leinster,16304J,-7.2441662,53.4420544
Primary,1,14.04.2021,St Philip The Apostle Junior NS,"Clonsilla, D15",Dublin,Fingal County Council,D15V124,Dublin,19601H,-6.423507,53.3827908
Primary,1,14.04.2021,Charleville NS,Tullamore,Offaly,Offaly County Council,R35CX20,Leinster,10353P,-7.4928384,53.2743191
Secondary,1,14.04.2021,Coláiste Choilm,Tullamore,Offaly,Offaly County Council,R35WF97,Leinster,65610S,-7.4928384,53.2743191
Secondary,1,13.04.2021,Tullow Comm. School,Tullow,Carlow,Carlow County Council,R93DT20,Leinster,91356F,-6.7377301,52.803146
Secondary,1,13.04.2021,St Mogue's College,Bawnboy,Cavan,Cavan County Council,H14VW13,Ulster,70360C,,
Pre-school,1,13.04.2021,Learning Circle* (not a school),"Baldoyle, D13",Dublin,Dublin City Council,D13X2N4,Dublin,Creche33,-6.1285497,53.3958303
Primary,15,13.04.2021,S N Iosef Naofa,Roscrea,Tipperary,Tipperary (Nr) County Council,E53Y449,Munster,18345K,-7.788687666946512,52.942640999999995
Pre-school,1,12.04.2021,Tots to Teens* (not a school),Tullow,Carlow,Carlow County Council,,Leinster,Creche34,-6.7377301,52.803146
Primary,1,12.04.2021,Salesian Primary School,Limerick City,Limerick,Limerick City Council,V94RR99,Munster,20496U,-8.6301239,52.661252
Pre-school,1,8.04.2021,Little Acorns Montessori* (not a school),Carndonagh,Donegal,Donegal County Council,F93XDD1,Ulster,Creche35,,
Primary,3,8.04.2021,Scoil Santain NS,"Tallaght, D24",Dublin,South Dublin County Council,D24TW35,Dublin,19646G,-6.3746438,53.2874685
Primary,1,8.04.2021,Dunboyne Junior NS,Dunboyne,Meath,Meath County Council,A86HW57,Leinster,20032B,-6.4760189,53.4194359
Pre-school,1,5.04.2021,Fairyhouse Crèche* (not a school),Clarinbridge,Galway,,,Connacht,Creche36,-8.8803111,53.2277017
Pre-school,1,3.04.2021,Learning Circle* (not a school),"Baldoyle, D13",Dublin,Dublin City Council,D13X2N4,Dublin,Creche33,-6.1285497,53.3958303
Primary,12,2.04.2021,CRC Special School,"Clontarf, D3",Dublin,Dublin City Council,D03K298,Dublin,18317F,-6.2400266,53.3665746
Primary,1,2.04.2021,St John Bosco SBS,Dublin 7,Dublin,Dublin City Council,D07V654,Dublin,17912O,-6.2602732,53.3497645
Primary,1,2.04.2021,Belmayne ETNS,Dublin 13,Dublin,Dublin City Council,D13DA58,Dublin,20308Q,-6.162400642418439,53.39687754275643
Primary,1,2.04.2021,St Patrick's De La Salle BNS,Castlebar,Mayo,Mayo County Council,F23K389,Connacht,18542M,-9.297967,53.8568418
Primary,1,2.04.2021,Dean Kelly NS,Athlone,Westmeath,Westmeath County Council,N37X273,Leinster,16639R,-7.942705,53.4230832
Primary,1,2.04.2021,Castlebridge NS,Castlebridge,Wexford,Wexford County Council,Y35Y208,Leinster,18707S,-6.4503235,52.3827773
Primary,1,1.04.2021,Ardattin NS,Ardattin,Carlow,Carlow County Council,R93WC03,Leinster,18024N,-6.704205085410756,52.75801815
Primary,1,1.04.2021,Lissycasey NS,Ennis,Clare,Clare County Council,V95DH58,Munster,18555V,-8.983747,52.8435152
Secondary,1,1.04.2021,St Francis College,Rochestown,Cork,Cork County Council,T12TK82,Munster,62460K,-8.4023724,51.8752284
Primary,1,1.04.2021,St Vincent's Primary School,"Glasnevin, D11",Dublin,Dublin City Council,D11HX78,Dublin,17214N,-6.2662007,53.3782873
Primary,1,1.04.2021,Holy Trinity National School,"Leopardstown, D18",Dublin,Dun Laoghaire Rathdown,D18YV91,Dublin,20190T,-6.1927577,53.2747217
Primary,1,1.04.2021,St Francis Xavier JNS,"Castleknock, D15",Dublin,Fingal County Council,D15CX84,Dublin,19435Q,-6.3714239,53.3815285
Primary,1,1.04.2021,Scoil Thomais,"Castleknock, D15",Dublin,Fingal County Council,D15VW02,Dublin,19769W,-6.3714239,53.3815285
Secondary,1,1.04.2021,Newbridge College,Newbridge,Kildare,Kildare County Council,W12C241,Leinster,61680T,-6.7982137,53.180124
Primary,1,1.04.2021,Scoil Mhuire,Newbridge,Kildare,Kildare County Council,W12HD29,Leinster,19452Q,-6.7982137,53.180124
Primary,1,1.04.2021,Askeaton Senior NS,ASKEATON,Limerick,Limerick County Council,V94HD30,Munster,18530F,-8.975556,52.599722
Primary,1,1.04.2021,Scoil Eimear,TEMPLEMICHAEL,Longford,Longford County Council,N39ND29,Leinster,19753H,-6.1589513,52.841377
Primary,1,1.04.2021,St Oliver's Primary School,Drogheda,Louth,Louth County Council,A92NV26,Leinster,20349H,-6.3524183,53.7149877
Primary,1,1.04.2021,St Joseph's NS,Ballinrobe,Mayo,Mayo County Council,F31E406,Connacht,20089H,-9.2207207,53.6227775
Pre-school,1,1.04.2021,The Grange Childcare* (not a school),Drogheda,Meath,Meath County Council,A92P8FP,Leinster,Creche32,-6.3524183,53.7149877
Primary,1,1.04.2021,St Joseph's Mercy PS,Navan,Meath,Meath County Council,C15EA40,Leinster,16100Q,-6.6833615,53.651908
Pre-school,1,1.04.2021,Cuddles and Care Crèche* (not a school),Cloonfad,Roscommon,Roscommon County Council,F35N288,Connacht,Creche31,-8.752333,53.686962
Primary,1,1.04.2021,St Etchen's National School,Kinnegad,Westmeath,Westmeath County Council,N91CV96,Leinster,19848S,-7.1011946,53.4548146
Primary,3,31.03.2021,St Columba's GNS with Facility for Deaf Children,Douglas West,Cork,Cork County Council,T12WK3D,Munster,05508O,-8.4397421,51.8738756
Primary,1,31.03.2021,Scoil Mhuire,Ramelton,Donegal,Donegal County Council,F92XHW5,Ulster,19491D,,
Pre-school,1,31.03.2021,Holy Child Pre-School* (not a school),"Mountjoy, D1",Dublin,Dublin City Council,D01F228,Dublin,Creche29,-6.268058857312325,53.36186885
Primary,3,31.03.2021,CRC Special School,"Clontarf, D3",Dublin,Dublin City Council,D03K298,Dublin,18317F,-6.2400266,53.3665746
Secondary,1,31.03.2021,Coláiste Mhuire,"Cabra, D7",Dublin,Dublin City Council,D07CY97,Dublin,60450U,-6.2817747,53.3641011
Primary,1,31.03.2021,Taney Parish Primary School,"Dundrum, D14",Dublin,Dun Laoghaire Rathdown,D14PN29,Dublin,15284B,-6.245421301180873,53.29313120428456
Primary,1,31.03.2021,St Bernadette's Junior NS,"Clondalkin, D22",Dublin,South Dublin County Council,D22CD39,Dublin,19743E,-6.3942689,53.3219624
Primary,1,31.03.2021,St Kevin's Girls,"Tallaght, D24",Dublin,South Dublin County Council,D24R6PT,Dublin,19466E,-6.3746438,53.2874685
Pre-school,1,31.03.2021,Little Acorns Community Playschool* (not a school),Headford,Galway,,,Connacht,Creche30,-9.1070527,53.4693403
Primary,1,31.03.2021,Robertstown NS,Robertstown,Kildare,Kildare County Council,W91D403,Leinster,18430B,-6.8161946,53.2697889
Primary,1,31.03.2021,Mayo Abbey NS,Claremorris,Mayo,Mayo County Council,F12T256,Connacht,14205U,-8.9987858,53.7197301
Secondary,1,31.03.2021,St Gerald's College,Castlebar,Mayo,Mayo County Council,F23WV66,Connacht,64580H,-9.297967,53.8568418
Primary,1,31.03.2021,Dunboyne Junior NS,Dunboyne,Meath,Meath County Council,A86HW57,Leinster,20032B,-6.4760189,53.4194359
Primary,1,31.03.2021,Mullingar ETNS,Mullingar,Westmeath,Westmeath County Council,N91N722,Leinster,20188J,-7.3415454,53.5263035
Primary,1,30.03.2021,Parteen NS,Parteen,Clare,Clare County Council,V94EY64,Munster,16946D,-8.6153829,52.6957346
Primary,1,30.03.2021,Gardiner Street Convent,"Belvedere Court, D1",Dublin,Dublin City Council,D01H9C5,Dublin,12448N,-6.2586226,53.3578991
Secondary,1,30.03.2021,St Laurence College,Dublin 18,Dublin,Dun Laoghaire Rathdown,D18AK07,Dublin,60262T,-6.183345330490052,53.24093525
Primary,1,30.03.2021,Bracken Educate Together NS,Balbriggan,Dublin,Fingal County Council,K32YE94,Dublin,20282B,-6.1861964,53.609832
Primary,1,30.03.2021,Holywell Educate Together National School,Swords,Dublin,Fingal County Council,K67AP99,Dublin,20348F,-6.2184562,53.4598264
Primary,1,30.03.2021,Thornleigh Educate Together National School,Swords,Dublin,Fingal County Council,K67PH68,Dublin,20302E,-6.2184562,53.4598264
Primary,1,30.03.2021,Tallaght Comm. NS,"Tallaght, D24",Dublin,South Dublin County Council,D24YD74,Dublin,19582G,-6.3746438,53.2874685
Primary,1,30.03.2021,Scoil Chrónáin,Rathcoole,Dublin,South Dublin County Council,D24YW81,Dublin,19503H,-6.4679425,53.2813003
Primary,1,30.03.2021,CBS Primary School Tralee,Tralee,Kerry,Kerry County Council,V92FD62,Munster,18247K,-9.7054085,52.2692835
Secondary,1,30.03.2021,Coláiste Nano Nagle,Limerick City,Limerick,Limerick City Council,V94YW24,Munster,64250J,-8.6301239,52.661252
Primary,1,30.03.2021,Scoil Bhride,Tullamore,Offaly,Offaly County Council,R35N406,Leinster,18524K,-7.4928384,53.2743191
Primary,1,29.03.2021,Parteen NS,Parteen,Clare,Clare County Council,V94EY64,Munster,16946D,-8.6153829,52.6957346
Primary,1,29.03.2021,Scoil Seanain Naofa,Clonlara,Clare,Clare County Council,V94FP92,Munster,04548V,-8.553889,52.722222
Primary,1,29.03.2021,Scoil Naomh Fiachra,Letterkenny,Donegal,Donegal County Council,F92WD21,Ulster,12077E,-7.7378749,54.9493649
Pre-school,1,29.03.2021,ABA Preschool Academy* (not a school),"Tallaght, D24",Dublin,,,Dublin,Creche28,-6.3746438,53.2874685
Primary,1,29.03.2021,Holy Family School For The Deaf,"Cabra, D7",Dublin,Dublin City Council,D07TH79,Dublin,20495S,-6.2817747,53.3641011
Primary,2,29.03.2021,St Patrick's Jnr Mixed,Skerries,Dublin,Fingal County Council,K34D799,Dublin,16333Q,-6.1066867,53.5806379
Secondary,1,29.03.2021,St Joseph's Secondary School,Rush,Dublin,Fingal County Council,K56A308,Dublin,60343T,-6.0908956,53.5220444
Primary,1,29.03.2021,St Cronan's SNS,Swords,Dublin,Fingal County Council,K67CH99,Dublin,19535U,-6.2184562,53.4598264
Primary,1,29.03.2021,St Mark's Sen NS,"Tallaght, D24",Dublin,South Dublin County Council,D24FV07,Dublin,19390U,-6.3746438,53.2874685
Primary,3,29.03.2021,St Martin De Porres NS,"Tallaght, D24",Dublin,South Dublin County Council,D24HF54,Dublin,19617W,-6.3746438,53.2874685
Primary,1,29.03.2021,Citywest & Saggart Community National School,"Citywest, D24",Dublin,South Dublin County Council,D24R920,Dublin,20398U,-6.2588127,53.3398632
Primary,1,29.03.2021,Trinity Primary School,Tuam,Galway,Galway County Council,,Connacht,20547L,-8.8512875,53.5147915
Primary,1,29.03.2021,Scoil Bhride,Kill,Kildare,Kildare County Council,W91PF85,Leinster,17662R,-6.589208,53.2487139
Pre-school,2,29.03.2021,Early Years Montessori* (not a school),Stradbally,Laois,Laois County Council,R32X6T7,Leinster,Creche27,-7.1499661,53.0160548
Primary,1,29.03.2021,St Oliver's Primary School,Drogheda,Louth,Louth County Council,A92NV26,Leinster,20349H,-6.3524183,53.7149877
Secondary,1,29.03.2021,Davitt College,Castlebar,Mayo,Mayo County Council,F23VY15,Connacht,76060U,-9.297967,53.8568418
Primary,1,29.03.2021,St Patrick's NS,Stamullen,Meath,Meath County Council,K32KR96,Leinster,18044T,-6.2622712,53.6285486
Secondary,1,29.03.2021,Oaklands Comm. College,Edenderry,Offaly,Offaly County Council,R45R727,Leinster,72540O,-7.0488576,53.3433656
Secondary,2,29.03.2021,C.B.S. Thurles,Thurles,Tipperary,Tipperary (NR) County Council,E41HX75,Munster,65450W,-7.8151008,52.6801547
Primary,1,29.03.2021,St Paul's NS,Athlone,Westmeath,Westmeath County Council,N37E973,Leinster,18405C,-7.942705,53.4230832
Primary,1,28.03.2021,St Columba's GNS with Facility for Deaf Children,Douglas West,Cork,Cork County Council,T12WK3D,Munster,05508O,-8.4397421,51.8738756
Primary,1,28.03.2021,Scoil Naomh Fiachra,Letterkenny,Donegal,Donegal County Council,F92WD21,Ulster,12077E,-7.7378749,54.9493649
Primary,3,28.03.2021,CRC Special School,"Clontarf, D3",Dublin,Dublin City Council,D03K298,Dublin,18317F,-6.2400266,53.3665746
Secondary,1,28.03.2021,St Louis High School,"Rathmines, D6",Dublin,Dublin City Council,D06F860,Dublin,60890C,-6.2676273,53.3206853
Primary,1,28.03.2021,Lindsay Road NS,"Glasnevin, D9",Dublin,Dublin City Council,D09YH93,Dublin,16177F,-6.2662007,53.3782873
Primary,2,28.03.2021,St Vincent's Primary School,"Glasnevin, D11",Dublin,Dublin City Council,D11HX78,Dublin,17214N,-6.2662007,53.3782873
Primary,1,28.03.2021,Scoil Mhuire JNS,"Mulhuddart, D15",Dublin,Fingal County Council,D15F293,Dublin,19605P,-6.4134298,53.4060962
Primary,1,28.03.2021,Malahide / Portmarnock ETNS,Dublin 17,Dublin,Fingal County Council,D17DR97,Dublin,20445D,-6.209491170965708,53.400360750000004
Primary,1,28.03.2021,St Bernadette's Junior NS,"Clondalkin, D22",Dublin,South Dublin County Council,D22CD39,Dublin,19743E,-6.3942689,53.3219624
Primary,1,28.03.2021,Firhouse Educate Together National School,"Firhouse, D24",Dublin,South Dublin County Council,D24FW9Y,Dublin,20411J,-6.3252417,53.2809921
Primary,1,28.03.2021,Holy Family NS,Rathcoole,Dublin,South Dublin County Council,D24XH22,Dublin,13217W,-6.4679425,53.2813003
Secondary,1,28.03.2021,Tarbert Comp. School,Listowel,Kerry,Kerry County Council,V31WD66,Munster,81006S,-9.4846811,52.4472298
Primary,1,28.03.2021,St Oliver's NS,Killarney,Kerry,Kerry County Council,V93W594,Munster,19512I,-9.505322,52.0595746
Primary,1,28.03.2021,Gaelscoil Chill Dara,Newbridge,Kildare,Kildare County Council,R56PR22,Leinster,20023A,-6.7982137,53.180124
Primary,1,28.03.2021,Gathabawn NS,Gathabawn,Kilkenny,Kilkenny County Council,E41WD59,Leinster,17374M,,
Pre-school,3,28.03.2021,The Village Creche* (not a school),Ballyroan,Laois,Laois County Council,,Leinster,Creche25,-6.2990387,53.2901086
Primary,1,28.03.2021,Holy Family Junior Sch,Portlaoise,Laois,Laois County Council,R32CY05,Leinster,20270R,-7.3013754,53.0368853
Secondary,1,28.03.2021,St Oliver's Comm. College,Drogheda,Louth,Louth County Council,A92D766,Leinster,71761C,-6.3524183,53.7149877
Primary,1,28.03.2021,Lisaniska NS,Foxford,Mayo,Mayo County Council,F26EY28,Connacht,16021U,-9.116667,53.983333
Pre-school,1,28.03.2021,Coisceimeanna Comm. Childcare* (not a school),Trim,Meath,Meath County Council,C15Y32F,Leinster,Creche26,-6.789775120801938,53.5542857
Secondary,1,28.03.2021,Coláiste Choilm,Tullamore,Offaly,Offaly County Council,R35WF97,Leinster,65610S,-7.4928384,53.2743191
Secondary,1,28.03.2021,C.B.S. Thurles,Thurles,Tipperary,Tipperary (NR) County Council,E41HX75,Munster,65450W,-7.8151008,52.6801547
Primary,2,28.03.2021,S N Iosef Naofa,Roscrea,Tipperary,Tipperary (Nr) County Council,E53Y449,Munster,18345K,-7.788687666946512,52.942640999999995
Primary,2,28.03.2021,St Saviours NS,Waterford,Waterford,Waterford City Council,X91Y472,Munster,19511G,-7.1119081,52.2609997
Primary,1,28.03.2021,Dean Kelly NS,Athlone,Westmeath,Westmeath County Council,N37X273,Leinster,16639R,-7.942705,53.4230832
Primary,1,28.03.2021,St Peter's Girls NS,Athlone,Westmeath,Westmeath County Council,N37XY50,Leinster,07722D,-7.942705,53.4230832
Secondary,1,28.03.2021,St Kevin's Comm. College,Dunlavin,Wicklow,Wicklow County Council,W91R971,Leinster,70800E,-6.7001602,53.0574868
Secondary,1,27.03.2021,St Bricin's College,Belturbet,Cavan,Cavan County Council,H14P896,Ulster,70350W,-7.5293727,54.0162188
Primary,1,27.03.2021,Knockanean NS,Ennis,Clare,Clare County Council,V95FW42,Munster,17583V,-8.983747,52.8435152
Primary,1,27.03.2021,St Christopher's NS,"Ballsbridge, D4",Dublin,Dublin City Council,D04FP20,Dublin,20545H,-6.2311505,53.3291335
Secondary,1,27.03.2021,St Louis High School,"Rathmines, D6",Dublin,Dublin City Council,D06F860,Dublin,60890C,-6.2676273,53.3206853
Primary,1,27.03.2021,St Patrick's NS,Dalkey,Dublin,Dun Laoghaire Rathdown,A96RR04,Dublin,14647G,-6.1032043,53.2756245
Primary,1,27.03.2021,St Kevin's NS,Sallynoggin,Dublin,Dun Laoghaire Rathdown,A96W862,Dublin,19979K,-6.1426158,53.2767494
Primary,2,27.03.2021,Scoil Choilm Comm. NS,"Clonsilla, D15",Dublin,Fingal County Council,D15X582,Dublin,20241K,-6.423507,53.3827908
Primary,1,27.03.2021,St Colmcille's Jnr NS,"Knocklyon, D16",Dublin,South Dublin County Council,D16H337,Dublin,19474D,-6.324813497733623,53.2843351403604
Primary,1,27.03.2021,St Bernadette's Junior NS,"Clondalkin, D22",Dublin,South Dublin County Council,D22CD39,Dublin,19743E,-6.3942689,53.3219624
Primary,3,27.03.2021,Solas Chriost NS,"Tallaght, D24",Dublin,South Dublin County Council,D24C621,Dublin,19541P,-6.3746438,53.2874685
Primary,1,27.03.2021,St Pius X GNS,"Terenure, D6W",Dublin,South Dublin County Council,D6WPN27,Dublin,19178W,-6.289414232718017,53.304632643353344
Primary,1,27.03.2021,St David's NS,Naas,Kildare,Kildare County Council,W91AE26,Leinster,11893G,-6.6574093,53.2214677
Primary,1,27.03.2021,Scoil Náisiúnta Bhríde,Clane,Kildare,Kildare County Council,W91PF77,Leinster,19797E,-6.6861147,53.2911753
Primary,2,27.03.2021,Killashee Multi-Denominational NS,NAAS,Kildare,Kildare County Council,W91YV60,Leinster,20087D,-6.6574093,53.2214677
Primary,1,27.03.2021,Holy Family Senior School,Portlaoise,Laois,Laois County Council,R32N8C2,Leinster,20480F,-7.3013754,53.0368853
Primary,2,27.03.2021,Courtenay School,Newcastle West,Limerick,Limerick County Council,V42X343,Munster,17951B,-9.0529331,52.4488928
Primary,1,27.03.2021,St Mochta's NS,Louth Village,Louth,Louth County Council,A91AE79,Leinster,01553W,-6.532050201271116,53.90628485
Secondary,1,27.03.2021,St Oliver's Comm. College,Drogheda,Louth,Louth County Council,A92D766,Leinster,71761C,-6.3524183,53.7149877
Primary,1,27.03.2021,Culleens NS,Ballina,Mayo,Mayo County Council,F26TF97,Connacht,07054L,-9.1532099,54.1143359
Primary,1,27.03.2021,Scoil Eoin Phoil,Tullamore,Offaly,Offaly County Council,R35HN70,Leinster,19713S,-7.4928384,53.2743191
Primary,1,27.03.2021,Kiladangan NS,Nenagh,Tipperary,Tipperary (Nr) County Council,E45DT27,Munster,06658P,-8.196667,52.861944
Primary,1,27.03.2021,Scoil Mhuire Loughegar,Mullingar,Westmeath,Westmeath County Council,N91TD95,Leinster,18812P,-7.3415454,53.5263035
Secondary,2,26.03.2021,Mount Carmel Secondary School,Dublin 1,Dublin,Dublin City Council,D01W657,Dublin,60853T,-6.2602732,53.3497645
Primary,1,26.03.2021,"Mary, Help Of Christians G.N.S.",Dublin 7,Dublin,Dublin City Council,D07EH68,Dublin,17367P,-6.2602732,53.3497645
Primary,1,26.03.2021,Drimnagh Castle C.B.S. NS,"Walkinstown, D12",Dublin,Dublin City Council,D12C893,Dublin,19837N,-6.338666191460039,53.324878798326196
Secondary,1,26.03.2021,Our Lady Of Mercy Secondary School,"Drimnagh, D12",Dublin,Dublin City Council,D12HT22,Dublin,60991I,-6.3180819,53.3353824
Primary,1,26.03.2021,St Luke's NS,"Tyrrelstown, D15",Dublin,Fingal County Council,D15CH64,Dublin,16675V,-6.392217673487099,53.416537649999995
Primary,1,26.03.2021,Scoil Choilm Comm. NS,"Clonsilla, D15",Dublin,Fingal County Council,D15X582,Dublin,20241K,-6.423507,53.3827908
Primary,1,26.03.2021,St Patrick's Jnr Mixed,Skerries,Dublin,Fingal County Council,K34D799,Dublin,16333Q,-6.1066867,53.5806379
Primary,1,26.03.2021,St Patrick's Snr Mixed,Skerries,Dublin,Fingal County Council,K34X751,Dublin,16332O,-6.1066867,53.5806379
Secondary,1,26.03.2021,Coláiste Bríde,"Clondalkin, D22",Dublin,South Dublin County Council,D22C6Y2,Dublin,60122D,-6.3942689,53.3219624
Primary,1,26.03.2021,Scoil Naomh Ide,"Clondalkin, D22",Dublin,South Dublin County Council,D22ED72,Dublin,19220S,-6.3942689,53.3219624
Primary,1,26.03.2021,St Martin De Porres NS,"Tallaght, D24",Dublin,South Dublin County Council,D24HF54,Dublin,19617W,-6.3746438,53.2874685
Primary,1,26.03.2021,Holy Family NS,Rathcoole,Dublin,South Dublin County Council,D24XH22,Dublin,13217W,-6.4679425,53.2813003
Pre-school,1,26.03.2021,The Village Creche* (not a school),Ballyroan,Laois,Laois County Council,,Leinster,Creche25,-6.2990387,53.2901086
Primary,1,26.03.2021,Gaelscoil An Longfoirt,Longford Town,Longford,Longford County Council,N39TW62,Leinster,20083S,-7.8726908,53.7061441
Primary,1,26.03.2021,Lisaniska NS,Foxford,Mayo,Mayo County Council,F26EY28,Connacht,16021U,-9.116667,53.983333
Primary,3,26.03.2021,St Joseph's NS,Tullamore,Offaly,Offaly County Council,R35PH94,Leinster,18797W,-7.4928384,53.2743191
Primary,1,26.03.2021,St Paul's NS,Athlone,Westmeath,Westmeath County Council,N37E973,Leinster,18405C,-7.942705,53.4230832
Secondary,1,26.03.2021,Presentation Secondary School,Grogan's Road,Wexford,Wexford County Council,Y35XV70,Leinster,63661C,-6.4636125,52.3354811
Primary,4,26.03.2021,Kilcoole Primary School,Kilcoole,Wicklow,Wicklow County Council,A63XT71,Leinster,20346B,-6.0644448,53.1054131
Primary,1,25.03.2021,Ballyconnell Mxd NS,Ballyconnell,Cavan,Cavan County Council,H14HK81,Ulster,16093W,,
Pre-school,1,25.03.2021,Clever Clogs Childcare* (not a school),Ballyconnell,Cavan,Cavan County Council,H14PW13,Ulster,Creche24,,
Primary,1,25.03.2021,St Columba's GNS with Facility for Deaf Children,Douglas West,Cork,Cork County Council,T12WK3D,Munster,05508O,-8.4397421,51.8738756
Primary,1,25.03.2021,Scoil Íosagáin,Buncrana,Donegal,Donegal County Council,F93RF77,Ulster,19967D,,
Primary,1,25.03.2021,Scoil Chaitríona Cailíní,"Coolock, D5",Dublin,Dublin City Council,D05HR61,Dublin,18361I,-6.200352,53.3893213
Primary,1,25.03.2021,Our Lady of Victories Boys School,DUBLIN 9,Dublin,Dublin City Council,D09HC90,Dublin,18910P,-6.2602732,53.3497645
Primary,1,25.03.2021,St Gabriel's NS,"Ballyfermot, D10",Dublin,Dublin City Council,D10KD76,Dublin,19661C,-6.3587715,53.3427187
Secondary,1,25.03.2021,St Mary's Secondary School,"Glasnevin, D11",Dublin,Dublin City Council,D11X478,Dublin,60770P,-6.2662007,53.3782873
Primary,1,25.03.2021,St Mary's National School,"Sandyford, D18",Dublin,Dun Laoghaire Rathdown,D18XV90,Dublin,02872U,-6.2049294,53.2776671
Primary,1,25.03.2021,St Luke's NS,"Tyrrelstown, D15",Dublin,Fingal County Council,D15CH64,Dublin,16675V,-6.392217673487099,53.416537649999995
Primary,1,25.03.2021,Hansfield ETNS,"Hansfield, D15",Dublin,Fingal County Council,D15H1FC,Dublin,20383H,-6.4420549,53.3870051
Secondary,1,25.03.2021,Mount Sackville Secondary School,"Chapelizod, D20",Dublin,Fingal County Council,D20WP68,Dublin,60120W,-6.3451971,53.3479155
Primary,1,25.03.2021,Holy Family Junior NS,Swords,Dublin,Fingal County Council,K67PX92,Dublin,19721R,-6.2184562,53.4598264
Primary,1,25.03.2021,Sacred Heart NS,"Clondalkin, D22",Dublin,South Dublin County Council,D22H224,Dublin,19799I,-6.3942689,53.3219624
Primary,1,25.03.2021,St Mark's Sen NS,"Tallaght, D24",Dublin,South Dublin County Council,D24FV07,Dublin,19390U,-6.3746438,53.2874685
Primary,2,25.03.2021,St Thomas Senior NS,"Tallaght, D24",Dublin,South Dublin County Council,D24YN90,Dublin,19765O,-6.3746438,53.2874685
Primary,1,25.03.2021,Scoil Mhuire Junior School,Newbridge,Kildare,Kildare County Council,W12ED88,Leinster,19550Q,-6.7982137,53.180124
Secondary,1,25.03.2021,Patrician Secondary School,Newbridge,Kildare,Kildare County Council,W12XV38,Leinster,61681V,-6.7982137,53.180124
Primary,1,25.03.2021,Urlingford NS,Urlingford,Kilkenny,Kilkenny County Council,E41A567,Leinster,19930D,-7.572662719570901,52.7241513
Secondary,3,25.03.2021,Coláiste Íde Agus Iosaef,ABBEYFEALE,Limerick,Limerick County Council,V94F7X4,Munster,76093M,-9.301549,52.3847629
Secondary,1,25.03.2021,Mercy Secondary School,Ballymahon,Longford,Longford County Council,N39P8C5,Leinster,63710M,-7.7617266,53.5617282
Primary,1,25.03.2021,St Oliver's Primary School,Drogheda,Louth,Louth County Council,A92NV26,Leinster,20349H,-6.3524183,53.7149877
Primary,1,25.03.2021,St Angela's NS,Castlebar,Mayo,Mayo County Council,F23YD79,Connacht,18694M,-9.297967,53.8568418
Primary,1,25.03.2021,St Brendan's Boys PS,Birr,Offaly,Offaly County Council,R42NW22,Leinster,12370C,-7.9108738,53.0965843
Primary,1,25.03.2021,Mercy Primary School,Birr,Offaly,Offaly County Council,R42TX89,Leinster,03220F,-7.9108738,53.0965843
Primary,1,25.03.2021,Holy Trinity National School,Fethard,Tipperary,Tipperary (Sr) County Council,E91TD43,Munster,20355C,-7.695565047304932,52.46559915
Secondary,1,25.03.2021,St Peter's College,Summerhill,Wexford,Wexford County Council,Y35P8WT,Leinster,63650U,-6.7321526,53.4807969
Primary,1,24.03.2021,Lurgybrack NS,Letterkenny,Donegal,Donegal County Council,F92HP82,Ulster,16672P,-7.7378749,54.9493649
Primary,1,24.03.2021,Scoil Mhuire B & C,Stranorlar,Donegal,Donegal County Council,F93F9TF,Ulster,19927O,-7.483095,54.832219
Primary,1,24.03.2021,St Christopher's NS,"Ballsbridge, D4",Dublin,Dublin City Council,D04FP20,Dublin,20545H,-6.2311505,53.3291335
Primary,1,24.03.2021,Stanhope St Primary School,"Stoneybatter, D7",Dublin,Dublin City Council,D07DY60,Dublin,09932B,-6.2827967,53.3512117
Primary,1,24.03.2021,"Mary, Help Of Christians G.N.S.",Dublin 7,Dublin,Dublin City Council,D07EH68,Dublin,17367P,-6.2602732,53.3497645
Secondary,1,24.03.2021,Coláiste Pobail Setanta,"Clonsilla, D15",Dublin,Fingal County Council,D15EY17,Dublin,76098W,-6.423507,53.3827908
Secondary,1,24.03.2021,Riversdale Community College,"Blanchardstown, D15",Dublin,Fingal County Council,D15P380,Dublin,70081V,-6.3777514,53.389792
Primary,2,24.03.2021,Castleknock Educate Together NS,"Castleknock, D15",Dublin,Fingal County Council,D15X094,Dublin,20098I,-6.3714239,53.3815285
Primary,1,24.03.2021,Scoil Chormaic,Balbriggan,Dublin,Fingal County Council,K32AX94,Dublin,20269J,-6.1861964,53.609832
Primary,1,24.03.2021,St Patrick's Jnr Mixed,Skerries,Dublin,Fingal County Council,K34D799,Dublin,16333Q,-6.1066867,53.5806379
Primary,1,24.03.2021,Riverview ETNS,"Greenhills, D12",Dublin,South Dublin County Council,D12VY8A,Dublin,20494Q,-6.218504149999999,53.2978468
Primary,1,24.03.2021,St Mark's Sen NS,"Tallaght, D24",Dublin,South Dublin County Council,D24FV07,Dublin,19390U,-6.3746438,53.2874685
Primary,1,24.03.2021,St Thomas Senior NS,"Tallaght, D24",Dublin,South Dublin County Council,D24YN90,Dublin,19765O,-6.3746438,53.2874685
Pre-school,1,24.03.2021,Montessori Matters* (not a school),Lucan,Dublin,South Dublin County Council,K78AE93,Dublin,Creche23,-6.4501534,53.3567157
Primary,8,24.03.2021,Killashee Multi-Denominational NS,NAAS,Kildare,Kildare County Council,W91YV60,Leinster,20087D,-6.6574093,53.2214677
Primary,1,24.03.2021,Urlingford NS,Urlingford,Kilkenny,Kilkenny County Council,E41A567,Leinster,19930D,-7.572662719570901,52.7241513
Primary,1,24.03.2021,Le Chéile National School,Limerick,Limerick,Limerick County Council,V94X2TR,Munster,20459O,-8.6301239,52.661252
Secondary,1,24.03.2021,Mercy Secondary School,Ballymahon,Longford,Longford County Council,N39P8C5,Leinster,63710M,-7.7617266,53.5617282
Primary,1,24.03.2021,St Mochta's NS,Louth Village,Louth,Louth County Council,A91AE79,Leinster,01553W,-6.532050201271116,53.90628485
Primary,2,24.03.2021,Réalt Na Mara School,Dundalk,Louth,Louth County Council,A91TD3H,Leinster,20339E,-6.4008879,54.0046033
Primary,1,24.03.2021,Ballinamere NS,Tullamore,Offaly,Offaly County Council,R35AW83,Leinster,15656M,-7.4928384,53.2743191
Secondary,1,24.03.2021,C.B.S. Thurles,Thurles,Tipperary,Tipperary (NR) County Council,E41HX75,Munster,65450W,-7.8151008,52.6801547
Primary,1,24.03.2021,St Mary's Convent,Nenagh,Tipperary,Tipperary (Nr) County Council,E45DX78,Munster,16112A,-8.196667,52.861944
Primary,1,24.03.2021,CBS Primary School,Nenagh,Tipperary,Tipperary (Nr) County Council,E45VW44,Munster,16727O,-8.196667,52.861944
Primary,1,24.03.2021,St John The Baptist Girls School,Cashel,Tipperary,Tipperary (Sr) County Council,E25V627,Munster,19692N,-7.8879351,52.5167421
Primary,1,24.03.2021,St Paul's NS,Athlone,Westmeath,Westmeath County Council,N37E973,Leinster,18405C,-7.942705,53.4230832
Primary,1,24.03.2021,Our Lady Of Fatima Special School,WEXFORD,Wexford,Wexford County Council,Y35HF83,Leinster,19266T,-6.606515459159162,52.46018745
Primary,1,24.03.2021,Crossabeg NS,CROSSABEG,Wexford,Wexford County Council,Y35VY98,Leinster,17017L,-6.5005844,52.3840514
Primary,1,24.03.2021,Kilcoole Primary School,Kilcoole,Wicklow,Wicklow County Council,A63XT71,Leinster,20346B,-6.0644448,53.1054131
Primary,1,24.03.2021,Greystones Educate Together National School,Greystones,Wicklow,Wicklow County Council,A63YE36,Leinster,20300A,-6.0632184,53.1448901
Secondary,1,23.03.2021,Coláiste Achadh an Iuir,Virginia,Cavan,Cavan County Council,A82X224,Ulster,70390L,-77.497329,38.890086
Primary,1,23.03.2021,Scoil Naomh Fiachra,Letterkenny,Donegal,Donegal County Council,F92WD21,Ulster,12077E,-7.7378749,54.9493649
Pre-school,1,23.03.2021,Darndale Belcamp Integrated Childcare* (not a school),"Darndale, D17",Dublin,Dublin City Council,,Dublin,Creche21,-6.194032391656853,53.4009603
Primary,1,23.03.2021,St John Bosco SBS,Dublin 7,Dublin,Dublin City Council,D07V654,Dublin,17912O,-6.2602732,53.3497645
Primary,1,23.03.2021,Scoil Mobhi,"Glasnevin, D9",Dublin,Dublin City Council,D09A303,Dublin,19395H,-6.2662007,53.3782873
Primary,1,23.03.2021,Grace Park Educate Together National School,"Drumcondra, D9",Dublin,Dublin City Council,D09KDW4,Dublin,20486R,-6.259665718431606,53.36334425
Primary,1,23.03.2021,Assumption Senior Girls NS,"Walkinstown, D12",Dublin,Dublin City Council,D12FK49,Dublin,18170B,-6.338666191460039,53.324878798326196
Secondary,1,23.03.2021,Our Lady Of Mercy Secondary School,"Drimnagh, D12",Dublin,Dublin City Council,D12HT22,Dublin,60991I,-6.3180819,53.3353824
Primary,1,23.03.2021,Scoil Eoin,"Crumlin, D12",Dublin,Dublin City Council,D12PX38,Dublin,19382V,-6.3161673,53.3202316
Primary,1,23.03.2021,Our Lady Immaculate Senior NS,"Darndale, D17",Dublin,Dublin City Council,D17CK81,Dublin,19524P,-6.194032391656853,53.4009603
Primary,1,23.03.2021,Scoil Cholmcille Junior NS,Ballybrack,Dublin,Dun Laoghaire Rathdown,A96FA40,Dublin,19641T,-6.1266112,53.252448
Primary,1,23.03.2021,The Harold School,Glasthule,Dublin,Dun Laoghaire Rathdown,A96X043,Dublin,20141G,-6.126215011607295,53.2884307
Primary,1,23.03.2021,Our Lady's Grove Primary School,Dublin 14,Dublin,Dun Laoghaire Rathdown,D14Y993,Dublin,19374W,-6.2602732,53.3497645
Primary,1,23.03.2021,St Luke's NS,"Tyrrelstown, D15",Dublin,Fingal County Council,D15CH64,Dublin,16675V,-6.392217673487099,53.416537649999995
Pre-school,1,23.03.2021,Missus Tatty's Nursery* (not a school),"Clonee, D15",Dublin,Fingal County Council,D15NXT3,Dublin,Creche19,-6.418708,53.4067306
Primary,1,23.03.2021,Mary Mother Of Hope Junior NS,"Clonee, D15",Dublin,Fingal County Council,D15TA49,Dublin,20309S,-6.418708,53.4067306
Primary,1,23.03.2021,Castleknock Educate Together NS,"Castleknock, D15",Dublin,Fingal County Council,D15X094,Dublin,20098I,-6.3714239,53.3815285
Primary,1,23.03.2021,Scoil Phadraic Cailin,Donabate,Dublin,Fingal County Council,K36KH36,Dublin,18412W,-6.1485698,53.4864092
Primary,1,23.03.2021,St Colmcille's Girls NS,Swords,Dublin,Fingal County Council,K67H337,Dublin,18977B,-6.2184562,53.4598264
Primary,2,23.03.2021,St Brendan NS,Ballinasloe,Galway,Galway County Council,H53EW70,Connacht,17870B,-8.221376,53.3302722
Primary,1,23.03.2021,Holy Child NS,Naas,Kildare,Kildare County Council,W91Y266,Leinster,19597T,-6.6574093,53.2214677
Primary,1,23.03.2021,Gaelscoil Thulach Na Nóg,Dunboyne,Meath,Meath County Council,A86EP04,Leinster,20082Q,-6.4760189,53.4194359
Pre-school,23,23.03.2021,M&As Montessori* (not a school),Tullamore,Offaly,Offaly County Council,,Leinster,Creche18,-7.4928384,53.2743191
Primary,1,23.03.2021,Tullamore Educate Together NS,Tullamore,Offaly,Offaly County Council,R35AX22,Leinster,20189L,-7.4928384,53.2743191
Primary,1,23.03.2021,St Colman's NS,Tullamore,Offaly,Offaly County Council,R35HR63,Leinster,17746A,-7.4928384,53.2743191
Primary,1,23.03.2021,Killeen NS,BIRR,Tipperary,Tipperary (Nr) County Council,R42AK00,Munster,17179O,-7.9487105670485025,53.107468350000005
Primary,1,23.03.2021,Scoil na gCeithre Maistri,Athlone,Westmeath,Westmeath County Council,N37RP03,Leinster,19948W,-7.942705,53.4230832
Primary,1,23.03.2021,Our Lady Of Fatima Special School,WEXFORD,Wexford,Wexford County Council,Y35HF83,Leinster,19266T,-6.606515459159162,52.46018745
Primary,2,22.03.2021,S N Muire Lourdes,Tullow,Carlow,Carlow County Council,R93Y960,Leinster,13507I,-6.7377301,52.803146
Pre-school,1,22.03.2021,Tiny Tots Playgroup* (not a school),Stranorlar,Donegal,Donegal County Council,,Ulster,Creche22,-7.483095,54.832219
Secondary,3,22.03.2021,Mulroy College,Letterkenny,Donegal,Donegal County Council,F92FX36,Ulster,71220O,-7.7378749,54.9493649
Primary,2,22.03.2021,Scoil Mhuire B & C,Stranorlar,Donegal,Donegal County Council,F93F9TF,Ulster,19927O,-7.483095,54.832219
Pre-school,1,22.03.2021,Funky Kidz Preschool* (not a school),Swords,Dublin,,,Dublin,Creche17,-6.2184562,53.4598264
Primary,1,22.03.2021,Gaelscoil Cholaiste Mhuire,"Rotunda, D1",Dublin,Dublin City Council,D01WC99,Dublin,19926M,-6.2626281292658135,53.3525935
Primary,1,22.03.2021,Our Lady Of Consolation NS,"Donnycarney, D5",Dublin,Dublin City Council,D05RW80,Dublin,20064O,-6.2197423,53.3746929
Primary,1,22.03.2021,Mary Queen of Angels 1,"Ballyfermot, D10",Dublin,Dublin City Council,D10A997,Dublin,18585H,-6.3587715,53.3427187
Secondary,1,22.03.2021,St Michael's Secondary School,"Finglas, D11",Dublin,Dublin City Council,D11H521,Dublin,60741I,-6.2992966,53.3902233
Primary,1,22.03.2021,Sacred Heart BNS,"Ballygall, D11",Dublin,Dublin City Council,D11XE17,Dublin,04992R,-6.2759417825940655,53.383837850000006
Primary,2,22.03.2021,Scoil Naomh Colmcille,"Donaghmede, D13",Dublin,Dublin City Council,D13XP49,Dublin,19611K,-6.1635775,53.3948612
Secondary,1,22.03.2021,The Donahies Community School,Dublin 13,Dublin,Dublin City Council,D13YN77,Dublin,91318U,-6.162400642418439,53.39687754275643
Secondary,1,22.03.2021,Holy Child Community School,Sallynoggin,Dublin,Dun Laoghaire Rathdown,A96E0C9,Dublin,91330K,-6.1426158,53.2767494
Secondary,1,22.03.2021,Cabinteely Community School,"Cabinteely, D18",Dublin,Dun Laoghaire Rathdown,D18VH73,Dublin,91310E,-6.1505691,53.2612843
Primary,1,22.03.2021,St Luke's NS,"Tyrrelstown, D15",Dublin,Fingal County Council,D15CH64,Dublin,16675V,-6.392217673487099,53.416537649999995
Primary,1,22.03.2021,Hansfield ETNS,"Hansfield, D15",Dublin,Fingal County Council,D15H1FC,Dublin,20383H,-6.4420549,53.3870051
Secondary,2,22.03.2021,Loreto Secondary School,Balbriggan,Dublin,Fingal County Council,K32R248,Dublin,60010P,-6.1861964,53.609832
Primary,1,22.03.2021,Bracken Educate Together NS,Balbriggan,Dublin,Fingal County Council,K32YE94,Dublin,20282B,-6.1861964,53.609832
Primary,1,22.03.2021,St Damian's NS,"Perrystown, D12",Dublin,South Dublin County Council,D12FWV6,Dublin,19943M,-6.3192687,53.3073281
Primary,1,22.03.2021,St Mary's Senior NS,"Clondalkin, D22",Dublin,South Dublin County Council,D22WN40,Dublin,19647I,-6.3942689,53.3219624
Primary,1,22.03.2021,Solas Chriost NS,"Tallaght, D24",Dublin,South Dublin County Council,D24C621,Dublin,19541P,-6.3746438,53.2874685
Primary,1,22.03.2021,Scoil Mhuire Gan Smál,Ballygar,Galway,Galway County Council,F42AD83,Connacht,07455G,-8.3261381,53.5223233
Primary,1,22.03.2021,Scoil Mochua,Celbridge,Kildare,Kildare County Council,W23YY00,Leinster,19794V,-6.5396223,53.3383004
Primary,1,22.03.2021,St Conleths NS,Carbury,Kildare,Kildare County Council,W91KC79,Leinster,18449W,-6.9627118,53.3558412
Secondary,1,22.03.2021,Mountmellick Comm. School,Mountmellick,Laois,Laois County Council,R32A099,Leinster,91426A,-7.3251863,53.1175082
Primary,1,22.03.2021,St Colmcille's NS,AUGHNACLIFFE,Longford,Longford County Council,N39CD60,Leinster,19296F,-7.6040301,53.850985
Secondary,1,22.03.2021,Mercy Secondary School,Ballymahon,Longford,Longford County Council,N39P8C5,Leinster,63710M,-7.7617266,53.5617282
Primary,1,22.03.2021,Réalt Na Mara School,Dundalk,Louth,Louth County Council,A91TD3H,Leinster,20339E,-6.4008879,54.0046033
Primary,1,22.03.2021,St Joseph's CBS,Drogheda,Louth,Louth County Council,A92Y927,Leinster,17059E,-6.3524183,53.7149877
Primary,1,22.03.2021,Dangan Mixed NS,Summerhill,Meath,Meath County Council,A83HN83,Leinster,19018A,-6.7321526,53.4807969
Primary,1,22.03.2021,St Mary's NS,Ashbourne,Meath,Meath County Council,A84X762,Leinster,19768U,-6.3981743,53.5116146
Primary,3,22.03.2021,Scoil Oilibhéir Naofa,Bettystown,Meath,Meath County Council,A92H762,Leinster,20216L,-6.2446208,53.6984819
Primary,2,22.03.2021,Ballinamere NS,Tullamore,Offaly,Offaly County Council,R35AW83,Leinster,15656M,-7.4928384,53.2743191
Primary,1,22.03.2021,Scoil Eoin Phoil,Tullamore,Offaly,Offaly County Council,R35HN70,Leinster,19713S,-7.4928384,53.2743191
Primary,1,22.03.2021,Geashill NS,Geashill,Offaly,Offaly County Council,R35W253,Leinster,09191I,-7.3221015,53.2353767
Secondary,1,22.03.2021,C.B.S. Thurles,Thurles,Tipperary,Tipperary (NR) County Council,E41HX75,Munster,65450W,-7.8151008,52.6801547
Primary,3,22.03.2021,S N Iosef Naofa,Roscrea,Tipperary,Tipperary (Nr) County Council,E53Y449,Munster,18345K,-7.788687666946512,52.942640999999995
Primary,1,22.03.2021,Scoil Aonghusa Special School,Cashel,Tipperary,Tipperary (Sr) County Council,E25HY45,Munster,19615S,-7.8879351,52.5167421
Primary,1,22.03.2021,St Paul's NS,Athlone,Westmeath,Westmeath County Council,N37E973,Leinster,18405C,-7.942705,53.4230832
Primary,1,22.03.2021,St Senan's National School,Enniscorthy,Wexford,Wexford County Council,Y21EV70,Leinster,08221J,-6.5674944,52.5011493
Primary,1,22.03.2021,Oylegate NS,Enniscorthy,Wexford,Wexford County Council,Y21FN23,Leinster,16828U,-6.5674944,52.5011493
Primary,1,22.03.2021,Catherine McAuley Junior School,New Ross,Wexford,Wexford County Council,Y34XT89,Leinster,20481H,-6.9446066,52.3955671
Primary,1,22.03.2021,St Joseph's NS,Arklow,Wicklow,Wicklow County Council,Y14X856,Leinster,17181B,-6.1540035,52.798221
Primary,2,21.03.2021,Scoil Bhríde,Ballydehob,Cork,Cork County Council,P81V294,Munster,14225D,-9.4604371,51.5626308
Primary,1,21.03.2021,Scoil Íosagáin,Buncrana,Donegal,Donegal County Council,F93RF77,Ulster,19967D,,
Pre-school,1,21.03.2021,Links Childcare Abington* (not a school),Malahide,Dublin,,,Dublin,Creche8,-6.15367,53.4508401
Primary,1,21.03.2021,St Vincent's BNS,Dublin 1,Dublin,Dublin City Council,D01VW63,Dublin,15816I,-6.2602732,53.3497645
Primary,1,21.03.2021,St Vincent's GNS,Dublin 1,Dublin,Dublin City Council,D01XT04,Dublin,15056L,-6.2602732,53.3497645
Primary,1,21.03.2021,St Joseph's For Blind NS,"Drumcondra, D9",Dublin,Dublin City Council,D09C803,Dublin,18417J,-6.259665718431606,53.36334425
Primary,1,21.03.2021,Marist National School,"Crumlin, D12",Dublin,Dublin City Council,D12YP98,Dublin,18386B,-6.3161673,53.3202316
Primary,1,21.03.2021,St Kevin's Junior NS,"Donaghmede, D13",Dublin,Dublin City Council,D13DK88,Dublin,19538D,-6.1635775,53.3948612
Primary,1,21.03.2021,Scoil Cholmcille Junior NS,Ballybrack,Dublin,Dun Laoghaire Rathdown,A96FA40,Dublin,19641T,-6.1266112,53.252448
Primary,1,21.03.2021,St Luke's NS,"Tyrrelstown, D15",Dublin,Fingal County Council,D15CH64,Dublin,16675V,-6.392217673487099,53.416537649999995
Pre-school,8,21.03.2021,Roots and Wings Early Years Ed. and Care* (not a school),Donabate,Dublin,Fingal County Council,K36N678,Dublin,Creche15,-6.1485698,53.4864092
Primary,1,21.03.2021,Gaelscoil An Duinninigh,Swords,Dublin,Fingal County Council,K67V207,Dublin,19898K,-6.2184562,53.4598264
Secondary,1,21.03.2021,Deansrath Comm. College,"Clondalkin, D22",Dublin,South Dublin County Council,D22RY77,Dublin,70040H,-6.3942689,53.3219624
Primary,1,21.03.2021,St Brigid's JNS,"Tallaght, D24",Dublin,South Dublin County Council,D24X343,Dublin,19782O,-6.3746438,53.2874685
Primary,1,21.03.2021,St Oliver Plunketts NS,Athenry,Galway,Galway County Council,H65T680,Connacht,19449E,-8.7468297,53.2991901
Primary,1,21.03.2021,Craughwell NS,Craughwell,Galway,Galway County Council,H91P218,Connacht,05754G,-8.7348719,53.2306783
Pre-school,1,21.03.2021,Child's Play Creche* (not a school),Newbridge,Kildare,Kildare County Council,,Leinster,Creche16,-6.7982137,53.180124
Primary,1,21.03.2021,Scoil Bhríde,Naas,Kildare,Kildare County Council,W91YA62,Leinster,20114D,-6.6574093,53.2214677
Primary,1,21.03.2021,Killashee Multi-Denominational NS,NAAS,Kildare,Kildare County Council,W91YV60,Leinster,20087D,-6.6574093,53.2214677
Primary,1,21.03.2021,St Joseph's NS,Ballinrobe,Mayo,Mayo County Council,F31E406,Connacht,20089H,-9.2207207,53.6227775
Primary,1,21.03.2021,Dunboyne Junior NS,Dunboyne,Meath,Meath County Council,A86HW57,Leinster,20032B,-6.4760189,53.4194359
Primary,1,21.03.2021,Realt Na Mara BNS,Mornington,Meath,Meath County Council,A92WC52,Leinster,18762D,-6.2825549,53.7213844
Primary,1,21.03.2021,Presentation Primary School,Carrick-on-Suir,Tipperary,Tipperary (Sr) County Council,E32CA26,Munster,11872V,-7.413056,52.349167
Primary,1,21.03.2021,Holy Family Primary School,Mullingar,Westmeath,Westmeath County Council,N91Y225,Leinster,17327D,-7.3415454,53.5263035
Primary,1,21.03.2021,Presentation Senior School,Mullingar,Westmeath,Westmeath County Council,N91YD83,Leinster,18212O,-7.3415454,53.5263035
Primary,3,21.03.2021,Our Lady Of Fatima Special School,WEXFORD,Wexford,Wexford County Council,Y35HF83,Leinster,19266T,-6.606515459159162,52.46018745
Primary,1,21.03.2021,Greystones Educate Together National School,Greystones,Wicklow,Wicklow County Council,A63YE36,Leinster,20300A,-6.0632184,53.1448901
Primary,1,21.03.2021,St Laurence O'Toole's NS,Bray,Wicklow,Wicklow County Council,A98RP49,Leinster,16634H,-6.1105049,53.2014604
Primary,1,20.03.2021,Griffith Barracks Multi D School,"South Circular Road, D8",Dublin,Dublin City Council,D08KVY4,Dublin,20012S,-6.2869247,53.3322802
Primary,1,20.03.2021,Mary Queen of Angels,"Ballyfermot, D10",Dublin,Dublin City Council,D10C527,Dublin,18843D,-6.3587715,53.3427187
Primary,1,20.03.2021,Our Lady Of Good Counsel Boys NS,Dún Laoghaire,Dublin,Dun Laoghaire Rathdown,A96AF10,Dublin,19320W,-6.1360079,53.2922794
Primary,1,20.03.2021,Rush And Lusk Educate Together NS,Lusk,Dublin,Fingal County Council,K45WC62,Dublin,20176C,-6.1658125,53.5255827
Primary,1,20.03.2021,Holy Family Junior NS,Swords,Dublin,Fingal County Council,K67PX92,Dublin,19721R,-6.2184562,53.4598264
Primary,2,20.03.2021,S N Cholmcille Boys,Swords,Dublin,Fingal County Council,K67WP65,Dublin,18976W,-6.2184562,53.4598264
Primary,1,20.03.2021,St Kevin's Girls,"Tallaght, D24",Dublin,South Dublin County Council,D24R6PT,Dublin,19466E,-6.3746438,53.2874685
Primary,1,20.03.2021,Scoil Santain NS,"Tallaght, D24",Dublin,South Dublin County Council,D24TW35,Dublin,19646G,-6.3746438,53.2874685
Primary,1,20.03.2021,Patrician Primary School,Newbridge,Kildare,Kildare County Council,W12Y198,Leinster,15870O,-6.7982137,53.180124
Primary,3,20.03.2021,Scoil Ui Fhiaich,Maigh Nuad,Kildare,Kildare County Council,W23T207,Leinster,20058T,-6.5922806,53.3830239
Primary,2,20.03.2021,St Colman's NS,Stradbally,Laois,Laois County Council,R32VR84,Leinster,20353V,-7.1499661,53.0160548
Primary,1,20.03.2021,Monaleen NS,Castletroy,Limerick,Limerick County Council,V94T9P1,Munster,17937H,-8.5712428,52.6654318
Primary,1,20.03.2021,Scoil Mhuire,Ashbourne,Meath,Meath County Council,A84X762,Leinster,19768U,-6.3981743,53.5116146
Primary,1,20.03.2021,St Joseph's NS,Tullamore,Offaly,Offaly County Council,R35PH94,Leinster,18797W,-7.4928384,53.2743191
Primary,1,20.03.2021,Presentation Primary School,Thurles,Tipperary,Tipperary (Nr) County Council,E41V967,Munster,19874T,-7.8151008,52.6801547
Primary,1,20.03.2021,St Patrick's NS,Greystones,Wicklow,Wicklow County Council,A63EY42,Leinster,12554M,-6.0632184,53.1448901
Primary,1,19.03.2021,St Joseph's NS,Kingscourt,Cavan,Cavan County Council,A82RD70,Ulster,20172R,,
Primary,1,19.03.2021,S N Naomh Brid,Letterkenny,Donegal,Donegal County Council,F92XP86,Ulster,19228L,-7.7378749,54.9493649
Primary,2,19.03.2021,Dooish NS,BALLYBOFEY,Donegal,Donegal County Council,F93N768,Ulster,19333I,,
Pre-school,1,19.03.2021,Marbles Crèche* (not a school),Swords,Dublin,,,Dublin,Creche14,-6.2184562,53.4598264
Primary,1,19.03.2021,Our Lady Of Victories Infant NS,Dublin 9,Dublin,Dublin City Council,D09YC99,Dublin,19242F,-6.2602732,53.3497645
Primary,1,19.03.2021,St Kevin's Junior NS,"Donaghmede, D13",Dublin,Dublin City Council,D13DK88,Dublin,19538D,-6.1635775,53.3948612
Primary,1,19.03.2021,Pelletstown ETNS,"Rathborne, D15",Dublin,Dublin City Council,D15W571,Dublin,20392I,-6.3286808,53.3772299
Primary,2,19.03.2021,Scoil Cholmcille Junior NS,Ballybrack,Dublin,Dun Laoghaire Rathdown,A96FA40,Dublin,19641T,-6.1266112,53.252448
Primary,2,19.03.2021,Mary Mother Of Hope Junior NS,"Clonee, D15",Dublin,Fingal County Council,D15TA49,Dublin,20309S,-6.418708,53.4067306
Primary,1,19.03.2021,Mary Mother Of Hope Senior NS,"Castaheany, D15",Dublin,Fingal County Council,D15TA49,Dublin,20137P,-6.4267779,53.4026089
Primary,1,19.03.2021,Castleknock Educate Together NS,"Castleknock, D15",Dublin,Fingal County Council,D15X094,Dublin,20098I,-6.3714239,53.3815285
Primary,1,19.03.2021,St Catherine's NS,Rush,Dublin,Fingal County Council,K56TY32,Dublin,19624T,-6.0908956,53.5220444
Primary,2,19.03.2021,Holywell ETNS,Swords,Dublin,Fingal County Council,K67AP99,Dublin,20348F,-6.2184562,53.4598264
Primary,1,19.03.2021,Thornleigh Educate Together National School,Swords,Dublin,Fingal County Council,K67PH68,Dublin,20302E,-6.2184562,53.4598264
Primary,1,19.03.2021,Holy Family Senior NS,Swords,Dublin,Fingal County Council,K67V9V2,Dublin,19877C,-6.2184562,53.4598264
